{"version": 0.6, "generator": "Overpass API 0.7.62.4 2390de5a", "osm3s": {"timestamp_osm_base": "2025-01-08T05:57:59Z", "copyright": "The data included in this document is from www.openstreetmap.org. The data is made available under ODbL."}, "elements": [{"type": "node", "id": 271613766, "lat": 30.0443879, "lon": 31.2357257, "tags": {"admin_level": "2", "alt_name:ml": "\u0d05\u0d7d-\u0d16\u0d3e\u0d39\u0d3f\u0d31", "alt_name:vi": "Cai-r\u00f4", "capital": "yes", "capital_ISO3166-1": "yes", "ele": "68", "int_name": "Cairo", "is_capital": "country", "name": "\u0627\u0644\u0642\u0627\u0647\u0631\u0629", "name:ace": "Al-Qahirah", "name:ady": "\u041a\u0430\u0438\u0440", "name:af": "Ka\u00efro", "name:ak": "Cairo", "name:am": "\u12ab\u12ed\u122e", "name:an": "O Caire", "name:ar": "\u0627\u0644\u0642\u0627\u0647\u0631\u0629", "name:arz": "\u0627\u0644\u0642\u0627\u0647\u0631\u0647", "name:ast": "El Cairu", "name:av": "\u041a\u044a\u0430\u0433\u044c\u0438\u0440\u0430", "name:avk": "Alkaira", "name:awa": "\u0915\u093e\u0907\u0930\u094b", "name:az": "Qahir\u0259", "name:ba": "\u04a0\u04d9\u04bb\u0438\u0440", "name:bat-smg": "Kairs", "name:bcl": "Cairo", "name:be": "\u041a\u0430\u0456\u0440", "name:bg": "\u041a\u0430\u0439\u0440\u043e", "name:bn": "\u0995\u09be\u09af\u09bc\u09b0\u09cb", "name:bo": "\u0f41\u0f0b\u0f61\u0f72\u0f0b\u0f62\u0f7c", "name:br": "Kaero", "name:bs": "Kairo", "name:ca": "el Caire", "name:ce": "\u041a\u044a\u0430\u0445\u04c0\u0438\u0440\u0430", "name:ceb": "Cairo", "name:chy": "Cairo", "name:ckb": "\u0642\u0627\u06be\u06cc\u0631\u06d5", "name:crh": "Qaire", "name:cs": "K\u00e1hira", "name:csb": "Kairo", "name:cv": "\u041a\u0430\u0438\u0440", "name:cy": "Cairo", "name:da": "Kairo", "name:de": "Kairo", "name:diq": "Qahire", "name:dsb": "Kairo", "name:el": "\u039a\u03ac\u03b9\u03c1\u03bf", "name:en": "Cairo", "name:eo": "Kairo", "name:es": "El Cairo", "name:et": "Kairo", "name:eu": "Kairo", "name:ext": "El Cairu", "name:fa": "\u0642\u0627\u0647\u0631\u0647", "name:fi": "Kairo", "name:fo": "Keiro", "name:fr": "Le Caire", "name:frp": "Lo Cayiro", "name:frr": "Kairo", "name:fur": "El Cairo", "name:fy": "Kairo", "name:ga": "Caireo", "name:gd": "Cairo", "name:gl": "O Cairo - \u0627\u0644\u0642\u0627\u0647\u0631\u0629", "name:gn": "K\u00e1iro", "name:gu": "\u0a95\u0ac8\u0ab0\u0acb", "name:gv": "Cairo", "name:ha": "Kairo", "name:hak": "Cairo", "name:he": "\u05e7\u05d4\u05d9\u05e8", "name:hi": "\u0915\u093e\u0939\u093f\u0930\u093e", "name:hif": "Cairo", "name:hr": "Kairo", "name:hsb": "Kairo", "name:ht": "Li K\u00e8", "name:hu": "Kair\u00f3", "name:hy": "\u053f\u0561\u0570\u056b\u0580\u0565", "name:hyw": "\u0533\u0561\u0570\u056b\u0580\u0567", "name:ia": "Cairo", "name:id": "Kairo", "name:ie": "Cairo", "name:ilo": "Cairo", "name:inh": "\u041a\u0430\u0438\u0440", "name:io": "Kairo", "name:is": "Ka\u00edr\u00f3", "name:it": "Il Cairo", "name:ja": "\u30ab\u30a4\u30ed", "name:jv": "Kairo", "name:ka": "\u10d9\u10d0\u10d8\u10e0\u10dd", "name:kaa": "Al-Qahira", "name:kab": "Taqahirt", "name:kk": "\u04d8\u043b-\u049a\u0430\u04bb\u0438\u0440\u0430", "name:kl": "Cairo", "name:kn": "\u0c95\u0cc8\u0cb0\u0ccb", "name:ko": "\uce74\uc774\ub85c", "name:ku": "Qah\u00eere", "name:kv": "\u041a\u0430\u0438\u0440", "name:kw": "Cairo", "name:ky": "\u041a\u0430\u0438\u0440", "name:la": "Cairus", "name:lad": "El Kairo", "name:lb": "Kairo", "name:lbe": "\u041a\u044c\u0430\u0433\u044c\u0438\u0440\u0430", "name:lez": "\u041a\u0430\u0438\u0440", "name:lfn": "Qahira", "name:li": "Ca\u00efro", "name:lij": "O Cairo", "name:lmo": "El Cairo", "name:ln": "Kairo", "name:lt": "Kairas", "name:lv": "Kaira", "name:mad": "Kairo", "name:mai": "\u0915\u093e\u0907\u0930\u094b", "name:mdf": "\u041a\u0430\u0438\u0440", "name:mhr": "\u041a\u0430\u0438\u0440", "name:mi": "Kairo", "name:min": "Kairo", "name:mk": "\u041a\u0430\u0438\u0440\u043e", "name:ml": "\u0d15\u0d46\u0d2f\u0d4d\u0d31\u0d4b", "name:mn": "\u041a\u0430\u0438\u0440", "name:mr": "\u0915\u0948\u0930\u094b", "name:mrj": "\u041a\u0430\u0438\u0440", "name:ms": "Kaherah", "name:mt": "Kajr", "name:mwl": "Cairo", "name:my": "\u1000\u102d\u102f\u1004\u103a\u101b\u102d\u102f\u1019\u103c\u102d\u102f\u1037", "name:myv": "\u041a\u0430\u0438\u0440 \u043e\u0448", "name:mzn": "\u0642\u0627\u0647\u0631\u0647", "name:na": "Cairo", "name:nah": "El Cairo", "name:nan": "Cairo", "name:nap": "Il cairo", "name:nds": "Kairo", "name:new": "\u0915\u093e\u092f\u0930\u094b", "name:nl": "Ca\u00efro", "name:no": "Kairo", "name:ny": "Cairo", "name:oc": "Lo Caire", "name:os": "\u041a\u0430\u0438\u0440", "name:pa": "\u0a15\u0a3e\u0a39\u0a3f\u0a30\u0a3e", "name:pap": "Kairo", "name:pl": "Kair", "name:pms": "\u00cbl C\u00e0iro", "name:pnb": "\u0642\u0627\u06c1\u0631\u06c1", "name:pnt": "\u039a\u03ac\u03b9\u03c1\u03bf\u03bd", "name:ps": "\u0642\u0627\u0647\u0631\u0647", "name:pt": "Cairo", "name:qu": "Qahira", "name:rm": "Cairo", "name:ro": "Cairo", "name:roa-rup": "Cairo", "name:roa-tara": "'U Cairo", "name:ru": "\u041a\u0430\u0438\u0440", "name:rue": "\u041a\u0430\u0433\u0456\u0440\u0430", "name:sah": "\u041a\u0430\u0438\u0440", "name:sc": "Cairo", "name:scn": "Cairu", "name:sco": "Cairo", "name:sd": "\u0642\u0627\u0647\u0631\u0647", "name:se": "Cairo", "name:sh": "Kairo", "name:simple": "Cairo", "name:sk": "K\u00e1hira", "name:sl": "Kairo", "name:smn": "Kairo", "name:sn": "Cairo", "name:so": "Qaahiro", "name:sq": "Kajro", "name:sr": "\u041a\u0430\u0438\u0440\u043e", "name:ss": "Cairo", "name:su": "Kairo", "name:sv": "Kairo", "name:sw": "Kairo", "name:szl": "Kajir", "name:ta": "\u0b95\u0bc6\u0baf\u0bcd\u0bb0\u0bcb", "name:te": "\u0c15\u0c48\u0c30\u0c4b", "name:tg": "\u049a\u043e\u04b3\u0438\u0440\u0430", "name:th": "\u0e44\u0e04\u0e42\u0e23", "name:tk": "Kair", "name:tl": "Cairo", "name:tpi": "Kairo", "name:tr": "Kahire", "name:tt": "\u041a\u0430\u04bb\u0438\u0440\u04d9", "name:tw": "Kairo", "name:udm": "\u041a\u0430\u0438\u0440", "name:ug": "\u0643\u0627\u064a\u0631\u0648", "name:uk": "\u041a\u0430\u0457\u0440", "name:ur": "\u0642\u0627\u06c1\u0631\u06c1", "name:uz": "Qohira", "name:vec": "El Cairo", "name:vep": "Kair", "name:vi": "Cairo", "name:vls": "Ca\u00efro", "name:vo": "Kahir\u00e4", "name:wa": "El Caire", "name:war": "Cairo", "name:wo": "Xayra", "name:wuu": "\u5f00\u7f57", "name:xal": "\u041a\u0430\u0438\u0440 \u0431\u0430\u043b\u04bb\u0441\u043d", "name:xmf": "\u10d9\u10d0\u10d8\u10e0\u10dd", "name:yi": "\u05e7\u05d9\u05d9\u05e8\u05d0", "name:yo": "K\u00e1\u00edr\u00f2", "name:yue": "\u958b\u7f85", "name:zea": "Ca\u00efro", "name:zh": "\u5f00\u7f57", "name:zh-Hans": "\u5f00\u7f57", "name:zh-Hant": "\u958b\u7f85", "name:zu": "Cairo", "note": "reverted to arabic", "old_name:vi": "K\u00ea Th\u00e0nh", "place": "city", "population": "9120350", "rank": "0", "wikidata": "Q85", "wikipedia": "ar:\u0627\u0644\u0642\u0627\u0647\u0631\u0629"}}, {"type": "node", "id": 919759483, "lat": 29.9036651, "lon": 31.2832904}, {"type": "node", "id": 919759493, "lat": 30.0879592, "lon": 31.2305259}, {"type": "node", "id": 919759508, "lat": 29.8889879, "lon": 31.2818312}, {"type": "node", "id": 919759548, "lat": 30.0587127, "lon": 31.2266429}, {"type": "node", "id": 919759567, "lat": 29.8570961, "lon": 31.291337}, {"type": "node", "id": 919759617, "lat": 29.8169014, "lon": 31.2929292}, {"type": "node", "id": 919759647, "lat": 29.9499706, "lon": 31.256125}, {"type": "node", "id": 919759658, "lat": 30.0136286, "lon": 31.2203336}, {"type": "node", "id": 919759867, "lat": 29.7707662, "lon": 31.2891483}, {"type": "node", "id": 919759890, "lat": 29.9239938, "lon": 31.2795246}, {"type": "node", "id": 919759896, "lat": 29.9634304, "lon": 31.2361693}, {"type": "node", "id": 919759928, "lat": 30.0745441, "lon": 31.2247753}, {"type": "node", "id": 919759944, "lat": 29.8762622, "lon": 31.2851143}, {"type": "node", "id": 919760081, "lat": 29.8227605, "lon": 31.2915132}, {"type": "node", "id": 919760100, "lat": 30.033972, "lon": 31.2233376}, {"type": "node", "id": 919760138, "lat": 29.7864666, "lon": 31.2923846}, {"type": "node", "id": 919760165, "lat": 29.9421801, "lon": 31.2710595}, {"type": "node", "id": 919760179, "lat": 29.9807002, "lon": 31.2290807}, {"type": "node", "id": 919760242, "lat": 30.093036, "lon": 31.2311698}, {"type": "node", "id": 919760266, "lat": 29.8955734, "lon": 31.2821746}, {"type": "node", "id": 919760725, "lat": 30.0446529, "lon": 31.2299788}, {"type": "node", "id": 919760737, "lat": 29.8400111, "lon": 31.2920666}, {"type": "node", "id": 919760755, "lat": 29.803002, "lon": 31.2957144}, {"type": "node", "id": 919760772, "lat": 29.9546185, "lon": 31.2495374}, {"type": "node", "id": 919760777, "lat": 30.0013323, "lon": 31.2256765}, {"type": "node", "id": 919760803, "lat": 29.7736904, "lon": 31.2902856}, {"type": "node", "id": 919761072, "lat": 29.9077944, "lon": 31.2836551}, {"type": "node", "id": 919761096, "lat": 29.9678919, "lon": 31.2339163}, {"type": "node", "id": 919761158, "lat": 30.0652499, "lon": 31.2250113}, {"type": "node", "id": 919761175, "lat": 29.8627347, "lon": 31.2893628}, {"type": "node", "id": 919761256, "lat": 29.8271674, "lon": 31.2905216}, {"type": "node", "id": 919761471, "lat": 30.0184965, "lon": 31.2200331}, {"type": "node", "id": 919761508, "lat": 29.7889618, "lon": 31.2924528}, {"type": "node", "id": 919761546, "lat": 29.9286367, "lon": 31.2778978}, {"type": "node", "id": 919761552, "lat": 29.9897735, "lon": 31.2261396}, {"type": "node", "id": 919761594, "lat": 30.0806995, "lon": 31.2275004}, {"type": "node", "id": 919761603, "lat": 29.881788, "lon": 31.2828183}, {"type": "node", "id": 919761751, "lat": 30.0500672, "lon": 31.2295496}, {"type": "node", "id": 919761774, "lat": 29.8453921, "lon": 31.29311}, {"type": "node", "id": 919761824, "lat": 29.8068835, "lon": 31.2948898}, {"type": "node", "id": 919761853, "lat": 29.9453317, "lon": 31.2660706}, {"type": "node", "id": 919761860, "lat": 30.0067165, "lon": 31.2228978}, {"type": "node", "id": 919761914, "lat": 29.9126303, "lon": 31.282947}, {"type": "node", "id": 919762034, "lat": 30.0692983, "lon": 31.2242174}, {"type": "node", "id": 919762055, "lat": 29.8675425, "lon": 31.2878098}, {"type": "node", "id": 919762145, "lat": 29.9570725, "lon": 31.2465119}, {"type": "node", "id": 919762156, "lat": 30.0240702, "lon": 31.2201834}, {"type": "node", "id": 919762234, "lat": 29.7783652, "lon": 31.2919807}, {"type": "node", "id": 919762270, "lat": 29.9340729, "lon": 31.2763595}, {"type": "node", "id": 919762286, "lat": 29.9727806, "lon": 31.2329292}, {"type": "node", "id": 919762357, "lat": 30.0841769, "lon": 31.2293181}, {"type": "node", "id": 919762375, "lat": 29.8853931, "lon": 31.2819279}, {"type": "node", "id": 919762438, "lat": 30.0364426, "lon": 31.225934}, {"type": "node", "id": 919762589, "lat": 29.8304995, "lon": 31.2899208}, {"type": "node", "id": 919762609, "lat": 29.7949953, "lon": 31.2944054}, {"type": "node", "id": 919762631, "lat": 29.9921288, "lon": 31.2263095}, {"type": "node", "id": 919762647, "lat": 29.7659509, "lon": 31.2867206}, {"type": "node", "id": 919762663, "lat": 29.9007447, "lon": 31.2825823}, {"type": "node", "id": 919762734, "lat": 29.8534486, "lon": 31.2924528}, {"type": "node", "id": 919762752, "lat": 29.8127432, "lon": 31.2936916}, {"type": "node", "id": 919762773, "lat": 29.9606977, "lon": 31.241169}, {"type": "node", "id": 919762778, "lat": 30.0103398, "lon": 31.2211704}, {"type": "node", "id": 919762795, "lat": 29.7827232, "lon": 31.2925386}, {"type": "node", "id": 919762812, "lat": 29.9180611, "lon": 31.281445}, {"type": "node", "id": 919762956, "lat": 29.9760516, "lon": 31.2320743}, {"type": "node", "id": 919763024, "lat": 30.071508, "lon": 31.2240028}, {"type": "node", "id": 919763043, "lat": 29.8721708, "lon": 31.2866116}, {"type": "node", "id": 919763082, "lat": 30.0408124, "lon": 31.2292092}, {"type": "node", "id": 919763095, "lat": 29.8333437, "lon": 31.2900972}, {"type": "node", "id": 919763100, "lat": 30.0294968, "lon": 31.2211489}, {"type": "node", "id": 919764148, "lat": 29.7985332, "lon": 31.2955212}, {"type": "node", "id": 919764167, "lat": 29.9396141, "lon": 31.2730873}, {"type": "node", "id": 919764172, "lat": 29.9964589, "lon": 31.2268245}, {"type": "node", "id": 1134976312, "lat": 29.7917179, "lon": 31.293118}, {"type": "node", "id": 1928071873, "lat": 30.0377315, "lon": 31.2273111}, {"type": "node", "id": 1928072434, "lat": 30.0045561, "lon": 31.2238372}, {"type": "node", "id": 2372943275, "lat": 29.7483062, "lon": 31.9062825}, {"type": "node", "id": 2372943276, "lat": 29.7531396, "lon": 31.329991}, {"type": "node", "id": 2372943277, "lat": 29.7533367, "lon": 31.4642646}, {"type": "node", "id": 2372943278, "lat": 29.7533367, "lon": 31.7985}, {"type": "node", "id": 2372943279, "lat": 29.763494, "lon": 31.3071348}, {"type": "node", "id": 2372943280, "lat": 29.7639738, "lon": 31.5296141}, {"type": "node", "id": 2372943281, "lat": 29.769292, "lon": 31.7317891}, {"type": "node", "id": 2372943282, "lat": 29.9915076, "lon": 31.9090054}, {"type": "node", "id": 2372943288, "lat": 30.2295534, "lon": 31.8713494}, {"type": "node", "id": 3123731867, "lat": 30.1311783, "lon": 31.3075229}, {"type": "node", "id": 3123731868, "lat": 30.1553431, "lon": 31.3937649}, {"type": "node", "id": 3123731869, "lat": 30.1573987, "lon": 31.4121895}, {"type": "node", "id": 3123731870, "lat": 30.1584265, "lon": 31.4318028}, {"type": "node", "id": 3123731871, "lat": 30.1666484, "lon": 31.4835106}, {"type": "node", "id": 3123731872, "lat": 30.1721293, "lon": 31.5924734}, {"type": "node", "id": 3123731873, "lat": 30.1889127, "lon": 31.6158508}, {"type": "node", "id": 3123731874, "lat": 30.1979663, "lon": 31.630124}, {"type": "node", "id": 3123731879, "lat": 30.3209168, "lon": 31.8367932}, {"type": "node", "id": 4007608866, "lat": 30.0600314, "lon": 31.2262344}, {"type": "node", "id": 4714503773, "lat": 30.0659818, "lon": 31.897245}, {"type": "node", "id": 6622154025, "lat": 29.8369772, "lon": 31.2912082}, {"type": "node", "id": 6625410933, "lat": 29.8008049, "lon": 31.2958431}, {"type": "node", "id": 6636267041, "lat": 30.0618514, "lon": 31.225698}, {"type": "node", "id": 6636267042, "lat": 30.0778029, "lon": 31.2260842}, {"type": "node", "id": 6636267043, "lat": 30.0730679, "lon": 31.2242389}, {"type": "node", "id": 6636457689, "lat": 30.0476248, "lon": 31.2300002}, {"type": "node", "id": 6636457693, "lat": 30.0907813, "lon": 31.2311482}, {"type": "node", "id": 6636457694, "lat": 30.0828348, "lon": 31.2285304}, {"type": "node", "id": 6636659753, "lat": 30.0329178, "lon": 31.2224203}, {"type": "node", "id": 6636824824, "lat": 30.0418063, "lon": 31.229673}, {"type": "node", "id": 6636824898, "lat": 30.0427676, "lon": 31.2298179}, {"type": "node", "id": 6636833847, "lat": 29.9852059, "lon": 31.2271356}, {"type": "node", "id": 6636833848, "lat": 29.9984009, "lon": 31.2266689}, {"type": "node", "id": 6639921602, "lat": 29.9435374, "lon": 31.2694502}, {"type": "node", "id": 6639921603, "lat": 29.9661259, "lon": 31.2345171}, {"type": "node", "id": 6640383258, "lat": 30.1581433, "lon": 31.4264666}, {"type": "node", "id": 6642301273, "lat": 29.9376524, "lon": 31.2745893}, {"type": "node", "id": 7247493227, "lat": 29.9649268, "lon": 31.2351018}, {"type": "node", "id": 7504488881, "lat": 30.0316211, "lon": 31.2218109}, {"type": "node", "id": 8230989294, "lat": 30.0316317, "lon": 31.2218142}, {"type": "node", "id": 11777999184, "lat": 29.9634841, "lon": 31.236131}, {"type": "node", "id": 12412718991, "lat": 29.9458901, "lon": 31.2648735}, {"type": "way", "id": 228633441, "nodes": [919762647, 919759867, 919760803, 919762234, 919762795, 919760138, 919761508, 1134976312, 919762609, 919764148, 6625410933, 919760755, 919761824, 919762752, 919759617, 919760081, 919761256, 919762589, 919763095, 6622154025, 919760737, 919761774, 919762734, 919759567, 919761175, 919762055, 919763043, 919759944, 919761603, 919762375, 919759508, 919760266, 919762663, 919759483, 919761072, 919761914, 919762812, 919759890, 919761546, 919762270, 6642301273, 919764167, 919760165, 6639921602, 919761853, 12412718991, 919759647, 919760772, 919762145, 919762773, 919759896, 11777999184, 7247493227, 6639921603, 919761096, 919762286, 919762956, 919760179, 6636833847, 919761552, 919762631, 919764172, 6636833848, 919760777, 1928072434], "tags": {"boat": "yes", "layer": "-1", "name": "\u0646\u0647\u0631 \u0627\u0644\u0646\u064a\u0644", "name:ar": "\u0646\u0647\u0631 \u0627\u0644\u0646\u064a\u0644", "name:arc": "\u0722\u071d\u0720\u0718\u0723", "name:azb": "\u0646\u06cc\u0644 \u0686\u0627\u06cc\u06cc", "name:bat-smg": "Nils", "name:be": "\u041d\u0456\u043b", "name:be-tarask": "\u041d\u0456\u043b", "name:bg": "\u041d\u0438\u043b", "name:br": "An Nil", "name:ckb": "\u0646\u06cc\u0644", "name:cop": "\u2cab\u2c93\u2c81\u2ca3\u2c9f", "name:cs": "Nil", "name:cy": "N\u00eel", "name:da": "Nilen", "name:de": "Nil", "name:din": "Nail", "name:en": "Nile", "name:es": "R\u00edo Nilo", "name:et": "Niilus", "name:fa": "\u0646\u06cc\u0644", "name:fi": "Niili", "name:fo": "Nil\u00e1", "name:fr": "Nil", "name:grc": "\u039d\u03b5\u1fd6\u03bb\u03bf\u03c2", "name:hi": "\u0928\u0940\u0932", "name:kg": "Nilo", "name:kn": "\u0ca8\u0cc0\u0cb2\u0ccd", "name:ks": "\u0646\u06cc\u0644", "name:lt": "Nilas", "name:lv": "N\u012bla", "name:ml": "\u0d28\u0d48\u0d7d \u0d28\u0d26\u0d3f", "name:mr": "\u0928\u0940\u0932", "name:nl": "Nijl", "name:pa": "\u0a28\u0a40\u0a32 \u0a28\u0a26\u0a40", "name:pl": "Nil", "name:pnb": "\u062f\u0631\u06cc\u0627\u06d3 \u0646\u06cc\u0644", "name:pt": "Rio Nilo", "name:ro": "Nil", "name:ru": "\u041d\u0438\u043b", "name:sk": "N\u00edl", "name:sr": "\u041d\u0438\u043b", "name:sr-Latn": "Nil", "name:sv": "Nilen", "name:syc": "\u0722\u071d\u0720\u0718\u0723", "name:szl": "\u0143il", "name:uk": "\u041d\u0456\u043b", "name:ur": "\u062f\u0631\u06cc\u0627\u0626\u06d2 \u0646\u06cc\u0644", "source": "landsat", "waterway": "river"}}, {"type": "way", "id": 228633449, "nodes": [2372943288, 3123731879], "tags": {"admin_level": "4", "boundary": "administrative"}}, {"type": "way", "id": 228633457, "nodes": [2372943275, 2372943282, 4714503773], "tags": {"admin_level": "4", "boundary": "administrative"}}, {"type": "way", "id": 228633469, "nodes": [2372943275, 2372943278, 2372943281, 2372943280, 2372943277, 2372943276, 2372943279, 919762647], "tags": {"admin_level": "4", "boundary": "administrative"}}, {"type": "way", "id": 307284015, "nodes": [3123731879, 3123731874], "tags": {"admin_level": "4", "boundary": "administrative"}}, {"type": "way", "id": 307284022, "nodes": [3123731874, 3123731873, 3123731872, 3123731871, 3123731870, 6640383258, 3123731869, 3123731868, 3123731867, 919760242], "tags": {"admin_level": "4", "boundary": "administrative"}}, {"type": "way", "id": 544219321, "nodes": [4714503773, 2372943288], "tags": {"admin_level": "4", "boundary": "administrative"}}, {"type": "way", "id": 752101470, "nodes": [1928072434, 919761860, 919762778, 919759658, 919761471, 919762156, 919763100, 7504488881], "tags": {"boat": "yes", "layer": "-1", "name": "\u0646\u0647\u0631 \u0627\u0644\u0646\u064a\u0644", "name:ar": "\u0646\u0647\u0631 \u0627\u0644\u0646\u064a\u0644", "name:arc": "\u0722\u071d\u0720\u0718\u0723", "name:azb": "\u0646\u06cc\u0644 \u0686\u0627\u06cc\u06cc", "name:bat-smg": "Nils", "name:be": "\u041d\u0456\u043b", "name:be-tarask": "\u041d\u0456\u043b", "name:bg": "\u041d\u0438\u043b", "name:br": "An Nil", "name:ckb": "\u0646\u06cc\u0644", "name:cop": "\u2cab\u2c93\u2c81\u2ca3\u2c9f", "name:cs": "Nil", "name:cy": "N\u00eel", "name:da": "Nilen", "name:de": "Nil", "name:din": "Nail", "name:en": "Nile", "name:es": "R\u00edo Nilo", "name:et": "Niilus", "name:fa": "\u0646\u06cc\u0644", "name:fi": "Niili", "name:fo": "Nil\u00e1", "name:fr": "Nil", "name:grc": "\u039d\u03b5\u1fd6\u03bb\u03bf\u03c2", "name:hi": "\u0928\u0940\u0932", "name:kg": "Nilo", "name:kn": "\u0ca8\u0cc0\u0cb2\u0ccd", "name:ks": "\u0646\u06cc\u0644", "name:lt": "Nilas", "name:lv": "N\u012bla", "name:ml": "\u0d28\u0d48\u0d7d \u0d28\u0d26\u0d3f", "name:mr": "\u0928\u0940\u0932", "name:nl": "Nijl", "name:pa": "\u0a28\u0a40\u0a32 \u0a28\u0a26\u0a40", "name:pl": "Nil", "name:pnb": "\u062f\u0631\u06cc\u0627\u06d3 \u0646\u06cc\u0644", "name:pt": "Rio Nilo", "name:ro": "Nil", "name:ru": "\u041d\u0438\u043b", "name:sk": "N\u00edl", "name:sr": "\u041d\u0438\u043b", "name:sv": "Nilen", "name:syc": "\u0722\u071d\u0720\u0718\u0723", "name:szl": "\u0143il", "name:uk": "\u041d\u0456\u043b", "name:ur": "\u062f\u0631\u06cc\u0627\u0626\u06d2 \u0646\u06cc\u0644", "source": "landsat", "waterway": "river"}}, {"type": "way", "id": 802285692, "nodes": [919759928, 6636267042, 919761594, 6636457694, 919762357, 919759493, 6636457693, 919760242], "tags": {"boat": "yes", "layer": "-1", "name": "\u0646\u0647\u0631 \u0627\u0644\u0646\u064a\u0644", "name:ar": "\u0646\u0647\u0631 \u0627\u0644\u0646\u064a\u0644", "name:arc": "\u0722\u071d\u0720\u0718\u0723", "name:azb": "\u0646\u06cc\u0644 \u0686\u0627\u06cc\u06cc", "name:bat-smg": "Nils", "name:be": "\u041d\u0456\u043b", "name:be-tarask": "\u041d\u0456\u043b", "name:bg": "\u041d\u0438\u043b", "name:br": "An Nil", "name:ckb": "\u0646\u06cc\u0644", "name:cop": "\u2cab\u2c93\u2c81\u2ca3\u2c9f", "name:cs": "Nil", "name:cy": "N\u00eel", "name:da": "Nilen", "name:de": "Nil", "name:din": "Nail", "name:en": "Nile", "name:es": "R\u00edo Nilo", "name:et": "Niilus", "name:fa": "\u0646\u06cc\u0644", "name:fi": "Niili", "name:fo": "Nil\u00e1", "name:fr": "Nil", "name:grc": "\u039d\u03b5\u1fd6\u03bb\u03bf\u03c2", "name:hi": "\u0928\u0940\u0932", "name:kg": "Nilo", "name:kn": "\u0ca8\u0cc0\u0cb2\u0ccd", "name:ks": "\u0646\u06cc\u0644", "name:lt": "Nilas", "name:lv": "N\u012bla", "name:ml": "\u0d28\u0d48\u0d7d \u0d28\u0d26\u0d3f", "name:mr": "\u0928\u0940\u0932", "name:nl": "Nijl", "name:pa": "\u0a28\u0a40\u0a32 \u0a28\u0a26\u0a40", "name:pl": "Nil", "name:pnb": "\u062f\u0631\u06cc\u0627\u06d3 \u0646\u06cc\u0644", "name:pt": "Rio Nilo", "name:ro": "Nil", "name:ru": "\u041d\u0438\u043b", "name:sk": "N\u00edl", "name:sr": "\u041d\u0438\u043b", "name:sv": "Nilen", "name:syc": "\u0722\u071d\u0720\u0718\u0723", "name:szl": "\u0143il", "name:uk": "\u041d\u0456\u043b", "name:ur": "\u062f\u0631\u06cc\u0627\u0626\u06d2 \u0646\u06cc\u0644", "source": "landsat", "waterway": "river"}}, {"type": "way", "id": 802285699, "nodes": [7504488881, 8230989294, 6636659753, 919760100, 919762438, 1928071873, 919763082, 6636824824, 6636824898, 919760725, 6636457689, 919761751, 919759548, 4007608866, 6636267041, 919761158, 919762034, 919763024, 6636267043, 919759928], "tags": {"boat": "yes", "layer": "-1", "name": "\u0646\u0647\u0631 \u0627\u0644\u0646\u064a\u0644", "name:ar": "\u0646\u0647\u0631 \u0627\u0644\u0646\u064a\u0644", "name:arc": "\u0722\u071d\u0720\u0718\u0723", "name:azb": "\u0646\u06cc\u0644 \u0686\u0627\u06cc\u06cc", "name:bat-smg": "Nils", "name:be": "\u041d\u0456\u043b", "name:be-tarask": "\u041d\u0456\u043b", "name:bg": "\u041d\u0438\u043b", "name:br": "An Nil", "name:ckb": "\u0646\u06cc\u0644", "name:cop": "\u2cab\u2c93\u2c81\u2ca3\u2c9f", "name:cs": "Nil", "name:cy": "N\u00eel", "name:da": "Nilen", "name:de": "Nil", "name:din": "Nail", "name:en": "Nile", "name:es": "R\u00edo Nilo", "name:et": "Niilus", "name:fa": "\u0646\u06cc\u0644", "name:fi": "Niili", "name:fo": "Nil\u00e1", "name:fr": "Nil", "name:grc": "\u039d\u03b5\u1fd6\u03bb\u03bf\u03c2", "name:hi": "\u0928\u0940\u0932", "name:kg": "Nilo", "name:kn": "\u0ca8\u0cc0\u0cb2\u0ccd", "name:ks": "\u0646\u06cc\u0644", "name:lt": "Nilas", "name:lv": "N\u012bla", "name:ml": "\u0d28\u0d48\u0d7d \u0d28\u0d26\u0d3f", "name:mr": "\u0928\u0940\u0932", "name:nl": "Nijl", "name:pa": "\u0a28\u0a40\u0a32 \u0a28\u0a26\u0a40", "name:pl": "Nil", "name:pnb": "\u062f\u0631\u06cc\u0627\u06d3 \u0646\u06cc\u0644", "name:pt": "Rio Nilo", "name:ro": "Nil", "name:ru": "\u041d\u0438\u043b", "name:sk": "N\u00edl", "name:sr": "\u041d\u0438\u043b", "name:sv": "Nilen", "name:syc": "\u0722\u071d\u0720\u0718\u0723", "name:szl": "\u0143il", "name:uk": "\u041d\u0456\u043b", "name:ur": "\u062f\u0631\u06cc\u0627\u0626\u06d2 \u0646\u06cc\u0644", "name:zh": "\u5c3c\u7f57\u6cb3", "source": "landsat", "waterway": "river"}}, {"type": "relation", "id": 5466227, "members": [{"type": "node", "ref": 271613766, "role": "admin_centre"}, {"type": "way", "ref": 307284022, "role": "outer"}, {"type": "way", "ref": 802285692, "role": "outer"}, {"type": "way", "ref": 802285699, "role": "outer"}, {"type": "way", "ref": 752101470, "role": "outer"}, {"type": "way", "ref": 307284015, "role": "outer"}, {"type": "way", "ref": 228633449, "role": "outer"}, {"type": "way", "ref": 228633457, "role": "outer"}, {"type": "way", "ref": 228633441, "role": "outer"}, {"type": "way", "ref": 228633469, "role": "outer"}, {"type": "way", "ref": 544219321, "role": "outer"}], "tags": {"admin_level": "4", "alt_name:vi": "Cai-r\u00f4", "int_name": "Cairo", "name": "\u0627\u0644\u0642\u0627\u0647\u0631\u0629", "name:ace": "Al-Qahirah", "name:af": "Ka\u00efro", "name:ak": "Cairo", "name:am": "\u12ab\u12ed\u122e", "name:an": "O Caire", "name:ar": "\u0627\u0644\u0642\u0627\u0647\u0631\u0629", "name:arz": "\u0627\u0644\u0642\u0627\u0647\u0631\u0647", "name:az": "Qahir\u0259", "name:ba": "\u04a0\u04d9\u04bb\u0438\u0440", "name:bat-smg": "Kairs", "name:bcl": "Cairo", "name:be": "\u041a\u0430\u0456\u0440", "name:bg": "\u041a\u0430\u0439\u0440\u043e", "name:bn": "\u0995\u09be\u09af\u09bc\u09b0\u09cb", "name:bo": "\u0f41\u0f0b\u0f61\u0f72\u0f0b\u0f62\u0f7c", "name:br": "Kaero", "name:bs": "Kairo", "name:ca": "el Caire", "name:ceb": "Cairo", "name:ckb": "\u0642\u0627\u06be\u06cc\u0631\u06d5", "name:cop": "\u2c95\u2c81\u03e3\u2ca3\u2cb1\u2c99\u2c93", "name:crh": "Qaire", "name:cs": "K\u00e1hira", "name:cv": "\u041a\u0430\u0438\u0440", "name:cy": "Cairo", "name:da": "Kairo", "name:de": "Kairo", "name:diq": "Qahire", "name:el": "\u039a\u03ac\u03b9\u03c1\u03bf", "name:en": "Cairo", "name:eo": "Kairo", "name:es": "El Cairo", "name:et": "Kairo", "name:ext": "El Cairu", "name:fa": "\u0642\u0627\u0647\u0631\u0647", "name:fi": "Kairo", "name:fo": "Keiro", "name:fr": "Le Caire", "name:frp": "Lo Cayiro", "name:gd": "Cairo", "name:gl": "O Cairo - \u0627\u0644\u0642\u0627\u0647\u0631\u0629", "name:gv": "Cairo", "name:he": "\u05e7\u05d4\u05d9\u05e8", "name:hi": "\u0915\u093e\u0939\u093f\u0930\u093e", "name:hif": "Cairo", "name:hr": "Kairo", "name:ht": "Li K\u00e8", "name:hu": "Kair\u00f3", "name:hy": "\u053f\u0561\u0570\u056b\u0580\u0565", "name:ia": "Cairo", "name:ie": "Cairo", "name:ilo": "Cairo", "name:io": "Kairo", "name:is": "Ka\u00edr\u00f3", "name:it": "Il Cairo", "name:ja": "\u30ab\u30a4\u30ed", "name:ka": "\u10d9\u10d0\u10d8\u10e0\u10dd", "name:kk": "\u04d8\u043b-\u049a\u0430\u04bb\u0438\u0440\u0430", "name:kl": "Cairo", "name:kn": "\u0c95\u0cc8\u0cb0\u0ccb", "name:ko": "\uce74\uc774\ub85c", "name:ku": "Qah\u00eere", "name:kv": "\u041a\u0430\u0438\u0440", "name:kw": "Cairo", "name:ky": "\u041a\u0430\u0438\u0440", "name:la": "Cairus", "name:lbe": "\u041a\u044c\u0430\u0433\u044c\u0438\u0440\u0430", "name:lez": "\u041a\u0430\u0438\u0440", "name:lij": "O Cairo", "name:lmo": "El Cairo", "name:lt": "Kairas", "name:lv": "Kaira", "name:mdf": "\u041a\u0430\u0438\u0440", "name:mhr": "\u041a\u0430\u0438\u0440", "name:mi": "Kairo", "name:mk": "\u041a\u0430\u0438\u0440\u043e", "name:ml": "\u0d15\u0d46\u0d2f\u0d4d\u0d31\u0d4b", "name:mn": "\u041a\u0430\u0438\u0440", "name:mr": "\u0915\u0948\u0930\u094b", "name:mrj": "\u041a\u0430\u0438\u0440", "name:ms": "Kaherah", "name:mwl": "Cairo", "name:my": "\u1000\u102d\u102f\u1004\u103a\u101b\u102d\u102f\u1019\u103c\u102d\u102f\u1037", "name:mzn": "\u0642\u0627\u0647\u0631\u0647", "name:nah": "El Cairo", "name:nan": "Cairo", "name:nap": "Il cairo", "name:new": "\u0915\u093e\u092f\u0930\u094b", "name:nl": "Ca\u00efro", "name:oc": "Lo Caire", "name:os": "\u041a\u0430\u0438\u0440", "name:pl": "Kair", "name:pms": "\u00cbl C\u00e0iro", "name:pnb": "\u0642\u0627\u06c1\u0631\u06c1", "name:pnt": "\u039a\u03ac\u03b9\u03c1\u03bf\u03bd", "name:ps": "\u0642\u0627\u0647\u0631\u0647", "name:pt": "Cairo", "name:qu": "Qahira", "name:rm": "Cairo", "name:ro": "Cairo", "name:roa-rup": "Cairo", "name:roa-tara": "'U Cairo", "name:ru": "\u041a\u0430\u0438\u0440", "name:rue": "\u041a\u0430\u0433\u0456\u0440\u0430", "name:sah": "\u041a\u0430\u0438\u0440", "name:sc": "Cairo", "name:scn": "Cairu", "name:sco": "Cairo", "name:se": "Cairo", "name:sk": "K\u00e1hira", "name:so": "Qaahiro", "name:sq": "Kajro", "name:sr": "\u041a\u0430\u0438\u0440\u043e", "name:sv": "Kairo", "name:szl": "Kajir", "name:ta": "\u0b95\u0bc6\u0baf\u0bcd\u0bb0\u0bcb", "name:te": "\u0c15\u0c48\u0c30\u0c4b", "name:tg": "\u049a\u043e\u04b3\u0438\u0440\u0430", "name:th": "\u0e44\u0e04\u0e42\u0e23", "name:tk": "Kair", "name:tl": "Cairo", "name:tr": "Kahire", "name:tt": "\u041a\u0430\u04bb\u0438\u0440\u04d9", "name:udm": "\u041a\u0430\u0438\u0440", "name:ug": "\u0643\u0627\u064a\u0631\u0648", "name:uk": "\u041a\u0430\u0457\u0440", "name:ur": "\u0642\u0627\u06c1\u0631\u06c1", "name:uz": "Qohira", "name:vec": "El Cairo", "name:vi": "Cairo", "name:vls": "Ca\u00efro", "name:vo": "Kahir\u00e4", "name:wa": "El Caire", "name:war": "Cairo", "name:wo": "Xayra", "name:wuu": "\u5f00\u7f57", "name:yi": "\u05e7\u05d9\u05d9\u05e8\u05d0", "name:yo": "K\u00e1\u00edr\u00f2", "name:yue": "\u958b\u7f85", "name:zh": "\u5f00\u7f57", "name:zh-Hans": "\u5f00\u7f57", "name:zh-Hant": "\u958b\u7f85", "old_name:vi": "K\u00ea Th\u00e0nh", "place": "city", "type": "multipolygon", "wikidata": "Q85"}}]}