{"version": 0.6, "generator": "Overpass API 0.7.62.4 2390de5a", "osm3s": {"timestamp_osm_base": "2025-01-08T07:17:42Z", "copyright": "The data included in this document is from www.openstreetmap.org. The data is made available under ODbL."}, "elements": [{"type": "node", "id": 508040941, "lat": 31.6258257, "lon": -7.9891608, "tags": {"alt_name:gl": "Marrakech", "alt_name:tr": "Merr\u00e2k\u00fc\u015f", "capital": "4", "check_date": "2024-12-01", "int_name": "Marrakech", "name": "Marrakech \u2d4e\u2d55\u2d55\u2d30\u2d3d\u2d6f\u2d5b \u0645\u0631\u0627\u0643\u0634", "name:ar": "\u0645\u0631\u0627\u0643\u0634", "name:ber": "\u2d4e\u2d55\u2d55\u2d30\u2d3d\u2d6f\u2d5b", "name:cs": "Marr\u00e1ke\u0161", "name:de": "Marrakesch", "name:en": "Marrakesh", "name:eo": "Marake\u015do", "name:es": "Marrakesh", "name:et": "Marrakech", "name:eu": "Marrakex", "name:fa": "\u0645\u0631\u0627\u06a9\u0634", "name:fr": "Marrakech", "name:gl": "Marraquex", "name:he": "\u05de\u05e8\u05e7\u05e9", "name:hi": "\u092e\u0930\u093e\u0915\u0947\u0936", "name:it": "Marrakech", "name:ja": "\u30de\u30e9\u30b1\u30b7\u30e5", "name:kab": "Amurakuc", "name:ko": "\ub9c8\ub77c\ucf00\uc2dc", "name:ku": "Marake\u015f", "name:ml": "\u0d2e\u0d30\u0d3e\u0d15\u0d4d\u0d15\u0d47\u0d37\u0d4d", "name:nl": "Marrakesh", "name:no": "Marrakech", "name:oc": "Marr\u00e0quoch", "name:pl": "Marrakesz", "name:pt": "Marraquexe", "name:ru": "\u041c\u0430\u0440\u0440\u0430\u043a\u0435\u0448", "name:sr": "\u041c\u0430\u0440\u0430\u043a\u0435\u0448", "name:sv": "Marrakech", "name:tr": "Merake\u015f", "name:ur": "\u0645\u0631\u0627\u06a9\u0634", "name:zgh": "\u2d4e\u2d55\u2d55\u2d30\u2d3d\u2d5b", "name:zh": "\u9a6c\u62c9\u5580\u4ec0", "place": "city", "population": "1002697", "population:date": "2024", "source:population": "Haut-Commissariat au Plan", "wikidata": "Q101625", "wikipedia": "ar:\u0645\u0631\u0627\u0643\u0634"}}, {"type": "node", "id": 1180698809, "lat": 31.755184, "lon": -8.109083, "tags": {"capital": "7", "name": "Tamansourt \u2d5c\u2d30\u2d4e\u2d4f\u2d5a\u2d53\u2d54\u2d5c \u062a\u0627\u0645\u0646\u0635\u0648\u0631\u062a", "name:ar": "\u062a\u0627\u0645\u0646\u0635\u0648\u0631\u062a", "name:ber": "\u2d5c\u2d30\u2d4e\u2d4f\u2d5a\u2d53\u2d54\u2d5c", "name:en": "Tamansourt", "name:fr": "Tamansourt", "name:zgh": "\u2d5c\u2d30\u2d4e\u2d4f\u2d5a\u2d53\u2d54\u2d5c", "place": "town", "wikidata": "Q3514638", "wikipedia": "ar:\u062a\u0627\u0645\u0646\u0635\u0648\u0631\u062a"}}, {"type": "node", "id": 1394776565, "lat": 31.6309505, "lon": -8.1645994, "tags": {"capital": "8", "name": "Souihla \u2d59\u2d61\u2d49\u2d40\u2d4d\u2d30 \u0633\u0648\u064a\u0647\u0644\u0629", "name:ar": "\u0633\u0648\u064a\u0647\u0644\u0629", "name:ber": "\u2d59\u2d61\u2d49\u2d40\u2d4d\u2d30", "name:en": "Souihla", "name:fr": "Souihla", "place": "town", "wikidata": "Q25454428", "wikipedia": "ar:\u0627\u0644\u0633\u0648\u064a\u0647\u0644\u0629"}}, {"type": "node", "id": 2209218482, "lat": 31.901685, "lon": -7.941499, "tags": {"capital": "6", "int_name": "Sidi Bou Othmane", "name": "Sidi Bou Othmane \u2d59\u2d49\u2d37\u2d49 \u2d31\u2d53 \u2d44\u2d5c\u2d4e\u2d30\u2d4f \u0633\u064a\u062f\u064a \u0628\u0648 \u0639\u062b\u0645\u0627\u0646", "name:ar": "\u0633\u064a\u062f\u064a \u0628\u0648 \u0639\u062b\u0645\u0627\u0646", "name:ber": "\u2d59\u2d49\u2d37\u2d49 \u2d31\u2d53 \u2d44\u2d5c\u2d4e\u2d30\u2d4f", "name:en": "Sidi Bou Othmane", "name:fr": "Sidi Bou Othmane", "place": "town", "wikidata": "Q3483201", "wikipedia": "en:Sidi Bou Othmane"}}, {"type": "node", "id": 2993567294, "lat": 31.6276636, "lon": -8.2603767, "tags": {"name": "Oulad Sbah \u2d61\u2d4d\u2d30\u2d37 \u2d59\u2d31\u2d30\u2d43 \u0623\u0648\u0644\u0627\u062f \u0635\u0628\u0627\u062d", "name:ar": "\u0623\u0648\u0644\u0627\u062f \u0635\u0628\u0627\u062d", "name:de": "Aul\u0101d \u1e62ab\u0101\u1e25", "name:en": "Oulad Sbah", "name:fr": "Oulad Sbah", "name:zgh": "\u2d61\u2d4d\u2d30\u2d37 \u2d59\u2d31\u2d30\u2d43", "place": "town", "wikidata": "Q87057532"}}, {"type": "node", "id": 11473530032, "lat": 31.595916, "lon": -8.0823429}, {"type": "node", "id": 11473530033, "lat": 31.5962778, "lon": -8.0819459}, {"type": "node", "id": 11473530034, "lat": 31.5962513, "lon": -8.0817228}, {"type": "node", "id": 11473530035, "lat": 31.5958529, "lon": -8.0814288}, {"type": "node", "id": 11473530036, "lat": 31.5956921, "lon": -8.0817367}, {"type": "node", "id": 11473530037, "lat": 31.5953768, "lon": -8.0815468}, {"type": "node", "id": 11473530038, "lat": 31.5952059, "lon": -8.081873}, {"type": "way", "id": 1235877208, "nodes": [11473530032, 11473530033, 11473530034, 11473530035, 11473530036, 11473530037, 11473530038, 11473530032], "tags": {"place": "town"}}]}