{"version": 0.6, "generator": "Overpass API 0.7.62.4 2390de5a", "osm3s": {"timestamp_osm_base": "2025-01-08T06:45:59Z", "copyright": "The data included in this document is from www.openstreetmap.org. The data is made available under ODbL."}, "elements": [{"type": "node", "id": 300066939, "lat": 15.452011, "lon": 36.3770699, "tags": {"GNS:dsg_code": "PPLA", "GNS:dsg_name": "populated place", "GNS:id": "-8533", "GNS:modify_date": "2015-12-16", "alt_name": "Cassala;Kasala", "alt_name:ar": "\u0643\u0633\u0651\u0644\u0627;\u0643\u0633\u0644", "name": "\u0643\u0633\u0644\u0627", "name:ar": "\u0643\u0633\u0644\u0627", "name:azb": "\u06a9\u0633\u0644\u0627", "name:cs": "Kassala", "name:de": "Kassala", "name:en": "Kassala", "name:es": "Kasala", "name:et": "Kassal\u0101", "name:eu": "Kassala", "name:fa": "\u06a9\u0633\u0644\u0627", "name:fr": "Kassala", "name:ko": "\uce74\uc0b4\ub77c", "name:ks": "\u06a9\u0633\u0644\u0627", "name:ru": "\u041a\u0430\u0441\u0441\u0430\u043b\u0430", "name:tr": "Kesel\u00e2", "name:uk": "\u041a\u0430\u0441\u0441\u0430\u043b\u0430", "name:ur": "\u06a9\u0633\u0644\u0627", "place": "city", "population": "436000", "wikidata": "Q954963"}}, {"type": "node", "id": 313795917, "lat": 15.109466, "lon": 36.660338, "tags": {"alt_name:ti": "\u1270\u1230\u1290\u12ed", "name": "\u1270\u1230\u1290\u12ed Teseney \u062a\u0633\u0646\u064a", "name:ar": "\u062a\u0633\u0646\u064a", "name:da": "Tesseney", "name:de": "Tesseney", "name:el": "\u03a4\u03b5\u03c3\u03b5\u03bd\u03ad\u03b9", "name:en": "Teseney", "name:es": "Teseney", "name:fa": "\u062a\u0633\u0646\u06cc", "name:fi": "Teseney", "name:fr": "Tesseney", "name:he": "\u05d8\u05e1\u05e0\u05d9\u05d9", "name:hr": "Teseney", "name:it": "Tessenei", "name:nb": "Tesseney", "name:pl": "Tesenej", "name:ru": "\u0422\u044d\u0441\u044d\u043d\u044d\u0439", "name:sv": "Teseney", "name:ti": "\u1270\u1230\u1290\u12ed", "name:ur": "\u062a\u0633\u0646\u06cc", "name:zh": "\u7279\u745f\u5167", "name:zu": "Teseney", "place": "town", "population": "18000", "wikidata": "Q1797764", "wikipedia": "ar:\u062a\u0633\u0646\u064a"}}, {"type": "node", "id": 1891718985, "lat": 15.4509135, "lon": 36.3750613}, {"type": "node", "id": 1891719021, "lat": 15.4511096, "lon": 36.3749668}, {"type": "node", "id": 3396852644, "lat": 15.4469281, "lon": 36.3765782}, {"type": "node", "id": 3396852645, "lat": 15.4471, "lon": 36.380506}, {"type": "node", "id": 3396852646, "lat": 15.447611, "lon": 36.3766572}, {"type": "node", "id": 3396852647, "lat": 15.4483661, "lon": 36.3765329}, {"type": "node", "id": 3396852649, "lat": 15.4515702, "lon": 36.3800638}, {"type": "node", "id": 3396852654, "lat": 15.4528043, "lon": 36.3806581}, {"type": "node", "id": 3396852655, "lat": 15.4536271, "lon": 36.3794912}, {"type": "node", "id": 3396852656, "lat": 15.4550227, "lon": 36.378886}, {"type": "node", "id": 3396852657, "lat": 15.4556492, "lon": 36.3731868}, {"type": "node", "id": 3396852658, "lat": 15.456637, "lon": 36.3786213}, {"type": "node", "id": 3396852659, "lat": 15.4567689, "lon": 36.3727223}, {"type": "node", "id": 3396852660, "lat": 15.4570796, "lon": 36.3791778}, {"type": "node", "id": 3396852661, "lat": 15.4577189, "lon": 36.3724969}, {"type": "node", "id": 3396852662, "lat": 15.4585637, "lon": 36.3795236}, {"type": "node", "id": 3396852663, "lat": 15.4603209, "lon": 36.378956}, {"type": "node", "id": 3396852664, "lat": 15.4615418, "lon": 36.3786241}, {"type": "node", "id": 3396852665, "lat": 15.4615587, "lon": 36.3772816}, {"type": "node", "id": 3396852666, "lat": 15.4618162, "lon": 36.3722465}, {"type": "node", "id": 3396852667, "lat": 15.4622669, "lon": 36.376536}, {"type": "node", "id": 5931562494, "lat": 15.4504201, "lon": 36.3753476}, {"type": "node", "id": 5966202415, "lat": 15.4497275, "lon": 36.3758137}, {"type": "node", "id": 9749114940, "lat": 15.4470247, "lon": 36.378724}, {"type": "way", "id": 332538296, "nodes": [3396852666, 3396852667, 3396852665, 3396852664, 3396852663, 3396852662, 3396852660, 3396852658, 3396852656, 3396852655, 3396852654, 3396852649, 3396852645, 9749114940, 3396852644, 3396852646, 3396852647, 5966202415, 5931562494, 1891718985, 1891719021, 3396852657, 3396852659, 3396852661, 3396852666], "tags": {"landuse": "residential", "place": "town"}}]}