{"version": 0.6, "generator": "Overpass API 0.7.62.4 2390de5a", "osm3s": {"timestamp_osm_base": "2025-01-08T06:21:22Z", "copyright": "The data included in this document is from www.openstreetmap.org. The data is made available under ODbL."}, "elements": [{"type": "node", "id": 1224294406, "lat": 14.294851, "lon": 45.2218307, "tags": {"GNS:dsg_code": "PPLA2", "GNS:dsg_name": "captial of a second-order administrative division", "GNS:id": "-3184697", "alt_name": "As Suw\u0101d\u012b; As Suwadiyah; As Suwadi; Sawadi; Al Saw\u0101diyyah; Suwadi; Al Sawadiyyah; As Suw\u0101d\u012byah", "int_name": "As Saw\u0101d\u012byah", "name": "\u0627\u0644\u0633\u0648\u0627\u062f\u064a\u0629", "name:ar": "\u0627\u0644\u0633\u0648\u0627\u062f\u064a\u0629", "name:de": "As Sawadiyah", "name:en": "As Sawadiyah", "name:fr": "As Sawadiyah", "place": "town", "population": "679", "population:date": "2004-12-17", "source:name": "GNS", "source:population": "YCSO2004:14-11-22-1"}}, {"type": "node", "id": 5587743988, "lat": 14.4145221, "lon": 44.8403277, "tags": {"GNS:dsg_code": "PPLA2", "GNS:dsg_name": "captial of a second-order administrative division", "GNS:id": "-3191084", "alt_name": "Red\u0101\u2018; Rida`; Rid\u0101\u2018; Reda`", "int_name": "Rad\u0101\u2018", "name": "\u0631\u062f\u0627\u0639", "name:ar": "\u0631\u062f\u0627\u0639", "name:de": "Rada'a", "name:en": "Rada`", "name:fr": "Rada`", "place": "town", "population": "49419", "population:date": "2004-12-17", "source:name": "GNS", "source:population": "YCSO2004:14-13-21-1", "wikipedia": "ar:\u0631\u062f\u0627\u0639"}}, {"type": "node", "id": 8010600154, "lat": 14.4166422, "lon": 44.827652, "tags": {"GNS:dsg_code": "PPL", "GNS:dsg_name": "populated place", "GNS:id": "-3183623", "GNS:modify_date": "2018-04-18", "alt_name": "Al Ma\u015fl\u0101;Al Masla;Al Musalla", "alt_name:ar": "\u0627\u0644\u0645\u0635\u0644\u0651\u0649", "name": "\u0627\u0644\u0645\u0635\u0644\u0649", "name:ar": "\u0627\u0644\u0645\u0635\u0644\u0649", "name:en": "Al Musalla", "place": "town", "population": "5984", "population:date": "2004-12-17", "source": "GNS", "source:population": "YCSO2004:14-16-21-2"}}, {"type": "node", "id": 12407930304, "lat": 14.3427426, "lon": 44.8994715}, {"type": "node", "id": 12407930305, "lat": 14.3515066, "lon": 44.8957121}, {"type": "node", "id": 12407930306, "lat": 14.3826656, "lon": 44.855665}, {"type": "node", "id": 12407930307, "lat": 14.381814, "lon": 44.845157}, {"type": "node", "id": 12407930308, "lat": 14.3802933, "lon": 44.8382074}, {"type": "node", "id": 12407930309, "lat": 14.3800702, "lon": 44.8327441}, {"type": "node", "id": 12407930310, "lat": 14.3771098, "lon": 44.81851}, {"type": "node", "id": 12407930311, "lat": 14.3719594, "lon": 44.8100534}, {"type": "node", "id": 12407930312, "lat": 14.3750416, "lon": 44.8005919}, {"type": "node", "id": 12407930313, "lat": 14.360908, "lon": 44.7881999}, {"type": "node", "id": 12407930314, "lat": 14.3458407, "lon": 44.7879488}, {"type": "node", "id": 12407930315, "lat": 14.3398582, "lon": 44.787551}, {"type": "node", "id": 12407930316, "lat": 14.3333481, "lon": 44.7859602}, {"type": "node", "id": 12407930317, "lat": 14.3302249, "lon": 44.7825901}, {"type": "node", "id": 12407930318, "lat": 14.323674, "lon": 44.7821714}, {"type": "node", "id": 12407930319, "lat": 14.3256346, "lon": 44.8167148}, {"type": "node", "id": 12407930320, "lat": 14.3184412, "lon": 44.8139258}, {"type": "node", "id": 12407930321, "lat": 14.3169404, "lon": 44.8251456}, {"type": "way", "id": 1341374972, "nodes": [12407930304, 12407930305, 12407930306, 12407930307, 12407930308, 12407930309, 12407930310, 12407930311, 12407930312, 12407930313, 12407930314, 12407930315, 12407930316, 12407930317, 12407930318, 12407930319, 12407930320, 12407930321, 12407930304], "tags": {"name": "\u0642\u0631\u0646 \u0627\u0644\u0623\u0633\u062f", "name:ar": "\u0642\u0631\u0646 \u0627\u0644\u0623\u0633\u062f", "name:en": "Qarn Al-Asad", "place": "town", "population": "6941", "population:date": "01-01-2004", "residential": "urban", "source": "https://ar.m.wikipedia.org/wiki/%D9%82%D8%B1%D9%86_%D8%A7%D9%84%D8%A3%D8%B3%D8%AF_(%D8%A7%D9%84%D8%A8%D9%8A%D8%B6%D8%A7%D8%A1)", "source:population": "http://www.yemen-nic.info/sectors/popul/#%D8%AA%D9%88%D8%B2%D9%8A%D8%B9_%D8%A7%D9%84%D8%B3%D9%83%D8%A7%D9%86_%D8%AD%D8%B3%D8%A8_%D8%A7%D9%84%D8%AA%D9%82%D8%B3%D9%8A%D9%85%D8%A7%D8%AA_%D8%A7%D9%84%D8%A5%D8%AF%D8%A7%D8%B1%D9%8A%D9%80%D8%A9_:%C2%A0__"}}]}