{"version": 0.6, "generator": "Overpass API 0.7.62.4 2390de5a", "osm3s": {"timestamp_osm_base": "2025-01-08T06:47:00Z", "copyright": "The data included in this document is from www.openstreetmap.org. The data is made available under ODbL."}, "elements": [{"type": "node", "id": 696840765, "lat": 12.1296418, "lon": 22.6064282, "tags": {"GNS:dsg_code": "PPL", "GNS:dsg_name": "populated place", "GNS:id": "-5926", "GNS:modify_date": "2012-08-15", "alt_name": "\u0641\u0631\u0628\u0631\u0646\u0642\u0627", "alt_name:en": "For Baranga;Foro Burunja", "description": "Locality", "designation": "Unity administrative", "name": "Forbranga", "name:ar": "\u062e\u0648\u0631\u0628\u0631\u0646\u0642\u0627", "name:en": "Khorbranga", "place": "town", "postal_code": "00352"}}, {"type": "node", "id": 6029975035, "lat": 12.0596759, "lon": 22.296195, "tags": {"GNS:dsg_code": "PPL", "GNS:dsg_name": "populated place", "GNS:id": "-1093558", "GNS:modify_date": "2010-04-14", "alt_name:ar": "\u062f\u0642\u062f\u0648\u0631\u064a", "alt_name:fr": "Dodjore;Dodjor\u00e9", "name": "Dogdor\u00e9 \u062f\u0648\u062c\u0648\u0631\u064a", "name:ar": "\u062f\u0648\u062c\u0648\u0631\u064a", "name:fr": "Dogdor\u00e9", "place": "town", "population": "5019", "population:date": "2017", "source": "MSFsurvey", "source:date": "2018-12", "source:population": "Recensement distribution Moustiquaire"}}, {"type": "node", "id": 8309438025, "lat": 12.0137352, "lon": 22.4827667, "tags": {"capital": "6", "name": "Mogororo", "note": "rank=0 + town car sous prefecture", "place": "town", "rank": "0"}}, {"type": "node", "id": 8460533492, "lat": 12.0317002, "lon": 22.6823691, "tags": {"name": "Terenga", "place": "town"}}, {"type": "node", "id": 8460533493, "lat": 12.0543263, "lon": 22.6889852, "tags": {"name": "Karanga", "place": "town"}}, {"type": "node", "id": 8460533494, "lat": 12.0478399, "lon": 22.6673262, "tags": {"name": "Fosa", "place": "town"}}]}