{"version": 0.6, "generator": "Overpass API 0.7.62.4 2390de5a", "osm3s": {"timestamp_osm_base": "2025-01-08T06:34:58Z", "copyright": "The data included in this document is from www.openstreetmap.org. The data is made available under ODbL."}, "elements": [{"type": "node", "id": 2574095218, "lat": 10.9508798, "lon": 24.5773199, "tags": {"GNS:dsg_code": "PPL", "GNS:dsg_name": "populated place", "GNS:id": "-16141", "GNS:modify_date": "2011-12-13", "alt_name": "Umm Danga", "name": "Um Danga", "name:ar": "\u0623\u0645\u0651 \u062f\u0646\u063a\u0623", "name:en": "Umm Danga", "place": "town"}}, {"type": "node", "id": 2586028980, "lat": 11.2165792, "lon": 24.711732, "tags": {"name": "Abu Sellala", "place": "town"}}, {"type": "node", "id": 2586084493, "lat": 11.0999988, "lon": 24.7521497, "tags": {"GNS:dsg_code": "PPL", "GNS:dsg_name": "populated place", "GNS:id": "-7931", "GNS:modify_date": "2009-01-27", "alt_name": "Jidad;Geddad;Gidad;Jid\u0101d", "alt_name:ar": "\u063a\u0625\u062f\u062f", "name": "Jidad", "name:ar": "\u062c\u062f\u0627\u062f", "name:en": "Jidad", "place": "town"}}, {"type": "node", "id": 2660513792, "lat": 11.1197542, "lon": 24.9168234, "tags": {"name": "Shergeila", "place": "town"}}, {"type": "node", "id": 2670850995, "lat": 10.9245009, "lon": 24.7071488, "tags": {"GNS:dsg_code": "PPL", "GNS:dsg_name": "populated place", "GNS:id": "-13113", "GNS:modify_date": "2011-12-13", "alt_name": "Raj\u0101j;Rajaj", "alt_name:ar": "\u0631\u062c\u0627\u062c", "name": "Ragag", "name:ar": "\u0631\u063a\u0623\u063a", "name:en": "Ragag", "place": "town"}}]}