{"version": 0.6, "generator": "Overpass API 0.7.62.4 2390de5a", "osm3s": {"timestamp_osm_base": "2025-01-08T06:32:48Z", "copyright": "The data included in this document is from www.openstreetmap.org. The data is made available under ODbL."}, "elements": [{"type": "node", "id": 192581952, "lat": 33.3532137, "lon": 43.7875674, "tags": {"alt_name:fr": "Falloujah", "alt_name:ko": "\ud314\ub8e8\uc790", "capital": "6", "name": "\u0627\u0644\u0641\u0644\u0648\u062c\u0629", "name:ar": "\u0627\u0644\u0641\u0644\u0648\u062c\u0629", "name:bn": "\u09ab\u09be\u09b2\u09c1\u099c\u09be", "name:ckb": "\u0641\u06d5\u0644\u0648\u062c\u06d5", "name:de": "Falludscha", "name:el": "\u03a6\u03b1\u03bb\u03bf\u03cd\u03c4\u03b6\u03b1", "name:en": "Fallujah", "name:eo": "Falu\u011da", "name:es": "Faluya", "name:et": "Al-Fall\u016bjah", "name:eu": "Falluja", "name:fr": "Fallouja", "name:he": "\u05e4\u05dc\u05d5\u05d2'\u05d4", "name:hi": "\u092b\u0932\u094d\u0932\u0941\u091c\u093e", "name:hr": "Falud\u017ea", "name:hu": "Falludzsa", "name:it": "Falluja", "name:ja": "\u30d5\u30a1\u30eb\u30fc\u30b8\u30e3", "name:ko": "\uc54c \ud314\ub8e8\uc790", "name:ku": "Feluce", "name:ml": "\u0d2b\u0d32\u0d4d\u0d32\u0d42\u0d1c", "name:pt": "Falluja", "name:te": "\u0c2b\u0c32\u0c42\u0c1c\u0c3e", "name:tr": "Felluce", "name:tt": "\u0424\u04d9\u043b\u043b\u0443\u0497\u04d9", "place": "city", "population": "326471", "wikidata": "Q191170", "wikipedia": "en:Fallujah"}}, {"type": "node", "id": 2318152545, "lat": 33.4049406, "lon": 43.9142317, "tags": {"alt_name:en": "Garma;Karmah;Karma", "capital": "7", "fixme": "Verify if size. Wikipedia list its population at 116 000", "int_name": "Al-Karmah - \u0627\u0644\u0643\u0631\u0645\u0629", "is_in:country": "Iraq", "is_in:country_code": "IQ", "name": "\u0627\u0644\u0643\u0631\u0645\u0629", "name:ar": "\u0627\u0644\u0643\u0631\u0645\u0629", "name:en": "Al-Karmah", "name:fr": "Al-Karmah", "name:ml": "\u0d05\u0d7d-\u0d15\u0d7c\u0d2e", "place": "town", "population": "95000", "population:date": "2013", "source:population": "DBpedia", "wikidata": "Q4702665", "wikipedia": "en:Al-Karmah"}}, {"type": "node", "id": 2486318357, "lat": 33.396389, "lon": 43.683333, "tags": {"alt_name": "\u0627\u0644\u0635\u0642\u0644\u0627\u0648\u064a\u0629", "capital": "7", "int_name": "Al Saqlawiyah - \u0627\u0644\u0635\u0642\u0644\u0627\u0648\u064a\u0629", "name": "\u0627\u0644\u0635\u0642\u0644\u0627\u0648\u064a\u0629", "name:ar": "\u0627\u0644\u0635\u0642\u0644\u0627\u0648\u064a\u0629", "name:de": "As Saqlawiyah", "name:en": "As Saqlawiyah", "name:fr": "As Saqlawiyah", "name:ko": "\uc557 \uc0ac\ub04c\ub77c\uc704\uc57c", "name:ml": "\u0d38\u0d16\u0d4d\u200c\u0d32\u0d3e\u0d35\u0d3f\u0d2f", "place": "town", "wikidata": "Q3950238", "wikipedia": "en:Saqlawiyah"}}, {"type": "node", "id": 2486323376, "lat": 33.382421, "lon": 43.5275942, "tags": {"alt_name": "\u0627\u0644\u062e\u0627\u0644\u062f\u064a\u0629", "alt_name:ko": "\uc54c \ud560\uc774\ub514\uc57c;\ud560\ub9ac\ub514\uc57c;\ud560\uc774\ub514\uc57c", "capital": "7", "int_name": "Al Kh\u0101lid\u012byah, Al Khalidiyah", "name": "\u0627\u0644\u062e\u0627\u0644\u062f\u064a\u0629", "name:ar": "\u0627\u0644\u062e\u0627\u0644\u062f\u064a\u0629", "name:de": "Al Khalidiyah", "name:en": "Al Khalidiyah", "name:fr": "Al Khalidiyah", "name:ko": "\uc54c \ud560\ub9ac\ub514\uc57c", "name:ml": "\u0d05\u0d7d-\u0d16\u0d3e\u0d32\u0d3f\u0d26\u0d3f\u0d2f", "place": "town", "population": "40000", "wikidata": "Q4119728", "wikipedia": "en:Al-Khalidiya, Iraq"}}, {"type": "node", "id": 2486323619, "lat": 33.3822674, "lon": 43.5835878, "tags": {"alt_name": "\u0627\u0644\u062d\u0628\u0627\u0646\u064a\u0629", "alt_name:ko": "\ud569\ubc14\ub2c8\uc57c", "capital": "6", "int_name": "Al Habbaniya - \u0627\u0644\u062d\u0628\u0627\u0646\u064a\u0629", "name": "\u0627\u0644\u062d\u0628\u0627\u0646\u064a\u0629", "name:ar": "\u0627\u0644\u062d\u0628\u0627\u0646\u064a\u0629", "name:de": "Habbanija", "name:en": "Al Habbaniya", "name:ko": "\uc54c \ud569\ubc14\ub2c8\uc57c", "name:ml": "\u0d05\u0d7d-\u0d39\u0d2c\u0d4d\u0d2c\u0d3e\u0d28\u0d3f\u0d2f", "name:ru": "\u042d\u043b\u044c-\u0425\u0430\u0431\u0431\u0430\u043d\u0438\u044f", "place": "town", "wikidata": "Q1032220", "wikipedia": "en:Habbaniyah"}}, {"type": "node", "id": 4362546567, "lat": 33.1634675, "lon": 43.8642164, "tags": {"capital": "7", "name": "\u0627\u0644\u0639\u0627\u0645\u0631\u064a\u0629", "name:en": "Al Amirya", "name:ml": "\u0d05\u0d7d-\u0d06\u0d2e\u0d3f\u0d31\u0d3f\u0d2f", "place": "town"}}, {"type": "node", "id": 11464795851, "lat": 33.2981042, "lon": 43.9395687}, {"type": "node", "id": 11464795852, "lat": 33.2955762, "lon": 43.9856455}, {"type": "node", "id": 11464795853, "lat": 33.2931601, "lon": 43.9859432}, {"type": "node", "id": 11464795854, "lat": 33.2920989, "lon": 43.9774473}, {"type": "node", "id": 11464795855, "lat": 33.3359392, "lon": 43.9395977}, {"type": "node", "id": 11464795856, "lat": 33.3290016, "lon": 43.9867763}, {"type": "node", "id": 11464795857, "lat": 33.3301552, "lon": 43.982791}, {"type": "node", "id": 11464795858, "lat": 33.2930643, "lon": 43.9692475}, {"type": "node", "id": 11464795860, "lat": 33.3352426, "lon": 43.9673789}, {"type": "node", "id": 11464795861, "lat": 33.3372859, "lon": 43.960893}, {"type": "node", "id": 11464805611, "lat": 33.2999731, "lon": 43.9836509}, {"type": "node", "id": 11464805662, "lat": 33.293871, "lon": 43.9736734}, {"type": "node", "id": 11464805663, "lat": 33.2943108, "lon": 43.9726162}, {"type": "node", "id": 11464805713, "lat": 33.2936617, "lon": 43.9662648}, {"type": "node", "id": 11464805714, "lat": 33.2978367, "lon": 43.9411777}, {"type": "node", "id": 11464805726, "lat": 33.2994815, "lon": 43.939596}, {"type": "node", "id": 11464805727, "lat": 33.334792, "lon": 43.9402956}, {"type": "node", "id": 11464805739, "lat": 33.3360547, "lon": 43.9420091}, {"type": "node", "id": 11464805742, "lat": 33.3311199, "lon": 43.9789626}, {"type": "node", "id": 11464805743, "lat": 33.3284858, "lon": 43.9867133}, {"type": "way", "id": 1235116759, "nodes": [11464805662, 11464805663, 11464795858, 11464805713, 11464805714, 11464795851, 11464805726, 11464805727, 11464795855, 11464805739, 11464795861, 11464795860, 11464805742, 11464795857, 11464795856, 11464805743, 11464805611, 11464795852, 11464795853, 11464795854, 11464805662], "tags": {"alt_name": "\u0645\u062f\u064a\u0646\u0629 \u0627\u0644\u0634\u0627\u0639\u0631 \u0645\u062d\u0645\u062f \u0645\u0647\u062f\u064a \u0627\u0644\u062c\u0648\u0627\u0647\u0631\u064a", "construction": "town", "landuse": "construction", "name": "\u0645\u062f\u064a\u0646\u0629 \u0627\u0644\u062c\u0648\u0627\u0647\u0631\u064a", "name:en": "Jawahri Town", "place": "town"}}]}