{"version": 0.6, "generator": "Overpass API 0.7.62.4 2390de5a", "osm3s": {"timestamp_osm_base": "2025-01-08T06:32:48Z", "copyright": "The data included in this document is from www.openstreetmap.org. The data is made available under ODbL."}, "elements": [{"type": "node", "id": 2482642895, "lat": 35.5321008, "lon": 43.2729913, "tags": {"alt_name": "\u0642\u0631\u064a\u0629 \u0639\u0648\u064a\u062c\u0644\u0629 \u062c\u0646\u0648\u0628\u064a", "int_name": "Qaryat Uwayjilah Jan\u016bb\u012b, \u0642\u0631\u064a\u0629 \u0639\u0648\u064a\u062c\u0644\u0629 \u062c\u0646\u0648\u0628\u064a, Qaryat Uwayjilah Janubi, \u0642\u0631\u064a\u0629 \u0639\u0648\u064a\u062c\u0644\u0629 \u062c\u0646\u0648\u0628\u064a", "name": "\u0639\u0648\u064a\u062c\u064a\u0644\u0629", "name:ar": "\u0639\u0648\u064a\u062c\u064a\u0644\u0629", "name:ar1": "\u0642\u0631\u064a\u0629 \u0639\u0648\u064a\u062c\u0644\u0629 \u062c\u0646\u0648\u0628\u064a", "name:ckb": "\u0639\u0648\u064a\u062c\u064a\u0644\u06d5", "name:de": "Uwayjilah", "name:en": "Uwayjilah", "name:fr": "Uwayjilah", "place": "town"}}, {"type": "node", "id": 2482644198, "lat": 35.5183136, "lon": 43.2338281, "tags": {"alt_name:en": "Sharq\u0101t, Sharqat, Shirqat", "alt_name:ko": "\uc2dc\ub974\uae4c\ub728;\uc2dc\ub974\uce74\ud2b8;\uc557 \uc2dc\ub974\uae4c\ub728;\uc557 \uc2dc\ub974\uce74\ud2b8;\uc0e4\ub974\uae4c\ub728;\uc26c\ub974\uae4c\ub728;\uc557 \uc26c\ub974\uae4c\ub728", "capital": "6", "int_name": "Sharqat - \u0627\u0644\u0634\u0631\u0642\u0627\u0637", "name": "\u0627\u0644\u0634\u0631\u0642\u0627\u0637", "name:ar": "\u0627\u0644\u0634\u0631\u0642\u0627\u0637", "name:ckb": "\u0634\u0631\u06af\u0627\u062a", "name:de": "Sharqat", "name:en": "Sharqat", "name:fr": "Al Charkat", "name:ko": "\uc557 \uc0e4\ub974\uae4c\ub728", "name:ml": "\u0d37\u0d7c\u0d16\u0d3e\u0d24\u0d4d\u0d24\u0d4d", "place": "town", "wikidata": "Q4523051", "wikipedia": "en:Al-Shirqat"}}, {"type": "node", "id": 2489253196, "lat": 35.2673004, "lon": 43.4499751, "tags": {"alt_name": "\u0627\u0644\u0632\u0627\u0628", "capital": "7", "int_name": "N\u0101\u1e29\u012byat az Z\u0101b, \u0646\u0627\u062d\u064a\u0629 \u0627\u0644\u0632\u0627\u0628, Nahiyat az Zab, \u0646\u0627\u062d\u064a\u0629 \u0627\u0644\u0632\u0627\u0628", "name": "\u0627\u0644\u0632\u0627\u0628", "name:ar": "\u0627\u0644\u0632\u0627\u0628", "name:de": "Az Zab", "name:en": "Az Zab", "name:fr": "Az Zab", "place": "town", "wikidata": "Q28195248"}}, {"type": "node", "id": 4742219140, "lat": 35.269388, "lon": 43.3885119}, {"type": "node", "id": 4742219141, "lat": 35.2701764, "lon": 43.3890697}, {"type": "node", "id": 4742219142, "lat": 35.2686522, "lon": 43.3954641}, {"type": "node", "id": 4742219143, "lat": 35.2670659, "lon": 43.4024334}, {"type": "node", "id": 4742219146, "lat": 35.265454, "lon": 43.3902454}, {"type": "node", "id": 4742219147, "lat": 35.2662074, "lon": 43.4088921}, {"type": "node", "id": 4742219148, "lat": 35.2618624, "lon": 43.4102654}, {"type": "node", "id": 4742219149, "lat": 35.2594095, "lon": 43.4123683}, {"type": "node", "id": 4742219150, "lat": 35.258739, "lon": 43.413681}, {"type": "node", "id": 4742219151, "lat": 35.257029, "lon": 43.4103071}, {"type": "node", "id": 4742219152, "lat": 35.2545417, "lon": 43.4076724}, {"type": "node", "id": 4742219153, "lat": 35.2519164, "lon": 43.4042773}, {"type": "node", "id": 4742219154, "lat": 35.2510339, "lon": 43.400867}, {"type": "node", "id": 4742219155, "lat": 35.2495274, "lon": 43.3972729}, {"type": "node", "id": 4742219156, "lat": 35.251245, "lon": 43.396174}, {"type": "node", "id": 4742219157, "lat": 35.254223, "lon": 43.3940649}, {"type": "node", "id": 4742219158, "lat": 35.2571317, "lon": 43.394022}, {"type": "node", "id": 4742219159, "lat": 35.2614469, "lon": 43.3928907}, {"type": "node", "id": 4742219160, "lat": 35.2641824, "lon": 43.3911143}, {"type": "node", "id": 5128322211, "lat": 35.2679418, "lon": 43.4009743}, {"type": "node", "id": 5128322212, "lat": 35.2661899, "lon": 43.4045362}, {"type": "node", "id": 5128322213, "lat": 35.2671359, "lon": 43.4059953}, {"type": "node", "id": 5128322214, "lat": 35.2529965, "lon": 43.3943224}, {"type": "node", "id": 5128322215, "lat": 35.2491063, "lon": 43.3988285}, {"type": "node", "id": 12175715756, "lat": 35.2604715, "lon": 43.4029485, "tags": {"name": "\u0627\u0644\u0632\u0648\u064a\u0629", "name:ar": "\u0627\u0644\u0632\u0648\u064a\u0629", "name:ckb": "\u0632\u0648\u06cc\u06cc\u06d5", "name:en": "al zuwya", "place": "town"}}, {"type": "way", "id": 481284060, "nodes": [4742219140, 4742219141, 4742219142, 5128322211, 4742219143, 5128322212, 5128322213, 4742219147, 4742219148, 4742219149, 4742219150, 4742219151, 4742219152, 4742219153, 4742219154, 5128322215, 4742219155, 4742219156, 5128322214, 4742219157, 4742219158, 4742219159, 4742219160, 4742219146, 4742219140], "tags": {"name": "\u0627\u0644\u0632\u0648\u064a\u0629", "name:en": "Azwai", "place": "town", "source": "DigitalGlobePremiumImagery"}}]}