{"version": 0.6, "generator": "Overpass API 0.7.62.4 2390de5a", "osm3s": {"timestamp_osm_base": "2025-01-08T06:47:00Z", "copyright": "The data included in this document is from www.openstreetmap.org. The data is made available under ODbL."}, "elements": [{"type": "node", "id": 7730426507, "lat": 11.7531421, "lon": 22.7756729, "tags": {"GNS:dsg_code": "PPL", "GNS:dsg_name": "populated place", "GNS:id": "-7993", "GNS:modify_date": "2012-09-12", "name": "Juguma", "name:ar": "\u0627\u0644\u062c\u0642\u0645\u0629", "name:en": "Juguma", "place": "town", "source": "GNS"}}, {"type": "node", "id": 8460533453, "lat": 11.9969846, "lon": 22.880723, "tags": {"name": "Tebeldiya", "place": "town"}}, {"type": "node", "id": 8460533454, "lat": 12.0022409, "lon": 22.8555165, "tags": {"name": "You You", "place": "town"}}, {"type": "node", "id": 8460533472, "lat": 11.9980236, "lon": 22.8387499, "tags": {"name": "Nyambeli", "place": "town"}}, {"type": "node", "id": 8460533473, "lat": 12.0110274, "lon": 22.817476, "tags": {"name": "Ramakaya", "place": "town"}}, {"type": "node", "id": 8460533474, "lat": 12.0275918, "lon": 22.8210602, "tags": {"name": "Demelenga", "place": "town"}}, {"type": "node", "id": 8460533475, "lat": 12.0252721, "lon": 22.7373401, "tags": {"name": "Ras El Fil", "place": "town"}}, {"type": "node", "id": 11304783073, "lat": 11.9706159, "lon": 23.0944419, "tags": {"name": "Bindisi", "name:ar": "\u0628\u0646\u062f\u0646\u0633\u064a", "place": "town"}}]}