{"version": 0.6, "generator": "Overpass API 0.7.62.4 2390de5a", "osm3s": {"timestamp_osm_base": "2025-01-08T06:04:14Z", "copyright": "The data included in this document is from www.openstreetmap.org. The data is made available under ODbL."}, "elements": [{"type": "node", "id": 1237960937, "lat": 17.4275188, "lon": 42.5472534, "tags": {"alt_name": "\u0645\u0637\u0639\u0646", "int_name": "Ma\u0163 an, Matan", "name": "\u0627\u0644\u0645\u0637\u0639\u0646", "name:ar": "\u0627\u0644\u0645\u0637\u0639\u0646", "name:de": "Matan", "name:en": "ALMata'an", "name:fr": "Matan", "place": "town", "population": "7652", "population:date": "2010", "source:population": "stats.gov.sa"}}, {"type": "node", "id": 1237961012, "lat": 17.459875, "lon": 42.557204, "tags": {"GNS:dsg_code": "PPL", "GNS:dsg_name": "populated place", "GNS:id": "-3097195", "alt_name": "Masliya; Masliyah; Masl\u012byah", "int_name": "Misl\u012byah", "name": "\u0645\u0633\u0644\u064a\u0629", "name:ar": "\u0645\u0633\u0644\u064a\u0629", "name:de": "Misliyah", "name:en": "Misliyah", "name:fr": "Misliyah", "place": "town", "population": "6776", "population:date": "2010", "source:name": "GNS", "source:population": "stats.gov.sa"}}, {"type": "node", "id": 6391743774, "lat": 17.3756272, "lon": 42.5372249, "tags": {"GNS:dsg_code": "PPL", "GNS:dsg_name": "populated place", "GNS:id": "10675585", "alt_name": "\u0623\u0645 \u0627\u0644\u062e\u0634\u0628", "capital": "6", "int_name": "Baysh", "name": "\u0628\u064a\u0634", "name:ar": "\u0628\u064a\u0634", "name:ckb": "\u0628\u06d5\u06cc\u0634", "name:de": "Baysh", "name:en": "Baysh", "name:fr": "Baysh", "name:ku": "Beyi\u015f", "place": "city", "population": "30835", "population:date": "2010", "source:population": "stats.gov.sa", "wikidata": "Q12200639", "wikipedia": "ar:\u0645\u062d\u0627\u0641\u0638\u0629 \u0628\u064a\u0634"}}, {"type": "node", "id": 10989343073, "lat": 17.2688761, "lon": 42.5389066, "tags": {"name": "\u0627\u0644\u0639\u0627\u0644\u064a\u0629", "name:en": "Alaliya", "place": "town"}}, {"type": "node", "id": 11173384707, "lat": 17.5774711, "lon": 42.6333475, "tags": {"name": "\u0627\u0644\u0641\u0637\u064a\u062d\u0629", "place": "town"}}]}