{"version": 0.6, "generator": "Overpass API 0.7.62.4 2390de5a", "osm3s": {"timestamp_osm_base": "2025-01-08T06:47:00Z", "copyright": "The data included in this document is from www.openstreetmap.org. The data is made available under ODbL."}, "elements": [{"type": "node", "id": 696850923, "lat": 12.4410996, "lon": 22.4531257, "tags": {"designation": "Unity administrative", "name": "Gobe", "name:ar": "\u0642\u0648\u0628\u064a", "place": "town", "postal_code": "01589"}}, {"type": "node", "id": 696859320, "lat": 12.401644, "lon": 22.6788658, "tags": {"GNS:dsg_code": "PPL", "GNS:dsg_name": "populated place", "GNS:id": "-10387", "GNS:modify_date": "2012-09-12", "alt_name": "Magarsa", "designation": "Unity administrative", "name": "Mangarsa", "name:ar": "\u0645\u0646\u0642\u0631\u0633\u0627", "name:en": "Magarsa", "place": "town", "postal_code": "00698"}}, {"type": "node", "id": 696871484, "lat": 12.306546, "lon": 22.4629726, "tags": {"name": "Tundosa", "name:ar": "\u062a\u0646\u062f\u0648\u0633\u0627", "name:en": "Tundosa", "place": "town", "postal_code": "01640"}}, {"type": "node", "id": 6029989221, "lat": 12.5682638, "lon": 22.3289239, "tags": {"GNS:dsg_code": "PPL", "GNS:dsg_name": "populated place", "GNS:id": "-1100998", "GNS:modify_date": "2010-04-14", "alt_name": "Moudeina;Made\u00efouna;Madeiouna;Made\u00efouma;Madeiouma;Mudeiouna;Modoyna", "capital": "6", "name": "Moudeina", "note": "rank=0 + town car sous prefecture", "place": "town", "rank": "0", "source": "MSFsurvey", "source:date": "2018-12"}}, {"type": "node", "id": 7730426907, "lat": 12.2733684, "lon": 22.7018022, "tags": {"GNS:dsg_code": "PPL", "GNS:dsg_name": "populated place", "GNS:id": "11601744", "GNS:modify_date": "2012-08-16", "name": "Keinyo", "name:ar": "\u0643\u064a\u0646\u064a\u0648", "name:en": "Keinyo", "place": "town", "postal_code": "01611", "source": "GNS"}}, {"type": "node", "id": 7730426965, "lat": 12.2509512, "lon": 22.7019249, "tags": {"GNS:dsg_code": "PPL", "GNS:dsg_name": "populated place", "GNS:id": "-10658", "GNS:modify_date": "2012-08-15", "name": "Mamun", "name:ar": "\u0645\u0623\u0645\u0648\u0646", "name:en": "Mamun", "place": "town", "postal_code": "00708", "source": "GNS"}}, {"type": "node", "id": 11117720837, "lat": 12.4865457, "lon": 22.6784598, "tags": {"name": "Um dirabiro", "name:ar": "\u0627\u0645 \u062f\u0631\u064a\u0628\u0631\u0648", "name:en": "Um dirabiro", "place": "town", "postal_code": "01646"}}]}