{"version": 0.6, "generator": "Overpass API 0.7.62.4 2390de5a", "osm3s": {"timestamp_osm_base": "2025-01-08T07:17:42Z", "copyright": "The data included in this document is from www.openstreetmap.org. The data is made available under ODbL."}, "elements": [{"type": "node", "id": 1165448862, "lat": 31.1563929, "lon": -7.4617715, "tags": {"name": "Agouim \u2d30\u2d33\u2d61\u2d49\u2d4e \u0623\u06af\u0648\u064a\u0645", "name:ar": "\u0623\u06af\u0648\u064a\u0645", "name:ber": "\u2d30\u2d33\u2d61\u2d49\u2d4e", "name:en": "Agouim", "name:fr": "Agouim", "name:zgh": "\u2d30\u2d33\u2d61\u2d49\u2d4e", "place": "town"}}, {"type": "node", "id": 1866540074, "lat": 31.563898, "lon": -7.662276, "tags": {"capital": "6", "name": "Ait Ourir \u2d30\u2d62\u2d5c \u2d53\u2d54\u2d49\u2d54 \u0627\u064a\u062a \u0627\u0648\u0631\u064a\u0631", "name:ar": "\u0627\u064a\u062a \u0627\u0648\u0631\u064a\u0631", "name:ber": "\u2d30\u2d62\u2d5c \u2d53\u2d54\u2d49\u2d54", "name:en": "Ait Ourir", "name:fr": "Ait Ourir", "place": "town", "population": "39108", "wikidata": "Q260908", "wikipedia": "en:Ait Ourir"}}, {"type": "node", "id": 11224859214, "lat": 31.4478241, "lon": -7.5302154}, {"type": "node", "id": 11224859215, "lat": 31.4475327, "lon": -7.5292397}, {"type": "node", "id": 11224859216, "lat": 31.4468668, "lon": -7.528573}, {"type": "node", "id": 11224859217, "lat": 31.4438978, "lon": -7.528264}, {"type": "node", "id": 11224859218, "lat": 31.4431209, "lon": -7.52789}, {"type": "node", "id": 11224859219, "lat": 31.4429822, "lon": -7.5288494}, {"type": "node", "id": 11224859220, "lat": 31.4434261, "lon": -7.5299878}, {"type": "node", "id": 11224859221, "lat": 31.4437591, "lon": -7.5306057}, {"type": "node", "id": 11224859222, "lat": 31.4442169, "lon": -7.5307846}, {"type": "node", "id": 11224859223, "lat": 31.4456043, "lon": -7.5301504}, {"type": "node", "id": 11224859224, "lat": 31.4465754, "lon": -7.530622}, {"type": "node", "id": 11224859225, "lat": 31.4474772, "lon": -7.5305732}, {"type": "node", "id": 11392414721, "lat": 31.4441364, "lon": -7.5307531}, {"type": "node", "id": 11392414722, "lat": 31.4444726, "lon": -7.5306677}, {"type": "way", "id": 1211577964, "nodes": [11224859214, 11224859215, 11224859216, 11224859217, 11224859218, 11224859219, 11224859220, 11224859221, 11392414721, 11224859222, 11392414722, 11224859223, 11224859224, 11224859225, 11224859214], "tags": {"name": "Irhaln", "place": "town"}}]}