{"version": 0.6, "generator": "Overpass API 0.7.62.4 2390de5a", "osm3s": {"timestamp_osm_base": "2025-01-08T06:47:00Z", "copyright": "The data included in this document is from www.openstreetmap.org. The data is made available under ODbL."}, "elements": [{"type": "node", "id": 5076775855, "lat": 13.8400217, "lon": 22.3904449, "tags": {"alt_name": "Abu Suruj;Abusrug;Abusruj;Abusrouj;Abu Saraj;Abu Ruj", "designation": "Unity administrative", "name": "Abu Surug", "name:ar": "\u0627\u0628\u0648 \u0633\u0631\u0648\u062c", "name:en": "Abu Surug", "place": "town", "postal_code": "00044"}}, {"type": "node", "id": 7730426854, "lat": 13.656642, "lon": 22.494861, "tags": {"GNS:dsg_code": "PPL", "GNS:dsg_name": "populated place", "GNS:id": "-9081", "GNS:modify_date": "2012-08-14", "name": "Kondobei", "name:ar": "\u0643\u0646\u062f\u0648\u0628\u064a", "name:en": "Kondobei", "place": "town", "postal_code": "03263", "source": "GNS"}}, {"type": "node", "id": 7730426933, "lat": 13.71436, "lon": 22.259246, "tags": {"GNS:dsg_code": "PPL", "GNS:dsg_name": "populated place", "GNS:id": "-7470", "GNS:modify_date": "2012-08-09", "admin_ref": "Unity", "alt_name": "Sarafayah;Sarafaya", "alt_name:ar": "\u0633\u0631\u0641\u064a", "designation": "Unity administrative", "name": "Saraf\u0101yah", "name:ar": "\u0633\u0631\u0641\u0627\u064a\u0629", "name:en": "Sarafayah", "place": "town", "postal_code": "00867", "source": "GNS"}}, {"type": "node", "id": 7730426969, "lat": 13.703479, "lon": 22.484863, "tags": {"GNS:dsg_code": "PPL", "GNS:dsg_name": "populated place", "GNS:id": "-3893", "GNS:modify_date": "2012-08-09", "alt_name": "Bir Dagig", "alt_name:ar": "\u0628\u0631 \u062f\u063a\u0625\u063a", "name": "Bir Dagig", "name:ar": "\u0628\u0626\u0631 \u062f\u0642\u064a\u0642", "name:en": "Bir Daqiq", "place": "town", "postal_code": "00183", "source": "GNS"}}, {"type": "node", "id": 7730430538, "lat": 13.533333, "lon": 22.6, "tags": {"GNS:dsg_code": "PPL", "GNS:dsg_name": "populated place", "GNS:id": "-3916", "GNS:modify_date": "2009-01-27", "alt_name": "Birkat Tayr;Birket Teir", "name": "Birkat \u0162ayr", "name:ar": "\u0628\u0631\u0643\u0629 \u0637\u064a\u0631", "name:en": "Birkat Tayr", "place": "town", "postal_code": "00193", "source": "GNS"}}, {"type": "node", "id": 9565907156, "lat": 13.5528633, "lon": 22.4193953, "tags": {"alt_name": "\u0627\u062f\u0627\u0631", "name": "Adar", "name:ar": "\u0639\u062f\u0627\u0631", "name:en": "Adar", "place": "town"}}, {"type": "node", "id": 9565993217, "lat": 13.8070239, "lon": 22.5015178, "tags": {"description": "Locality", "designation": "Unity administrative", "name": "Sirba", "name:ar": "\u0633\u0631\u0628\u0627", "name:en": "Sirba", "place": "town", "postal_code": "03269"}}, {"type": "node", "id": 10865393673, "lat": 13.8039971, "lon": 22.5024787, "tags": {"name": "Sirba", "name:ar": "\u0633\u0631\u0628\u0627", "place": "town"}}, {"type": "node", "id": 10911025611, "lat": 13.613618, "lon": 22.27738, "tags": {"name": "Banjedeed east", "name:ar": "\u0628\u0627\u0646 \u062c\u062f\u064a\u062f", "place": "town", "postal_code": "03071"}}, {"type": "node", "id": 11055727179, "lat": 13.5002079, "lon": 22.4918784, "tags": {"name": "Arbokonei", "name:ar": "\u0627\u0631\u0628\u0648\u0643\u0646\u064a", "place": "town", "postal_code": "03062"}}, {"type": "node", "id": 11083752885, "lat": 13.6016984, "lon": 22.6200814, "tags": {"name": "Kireikir", "place": "town"}}]}