{"version": 0.6, "generator": "Overpass API 0.7.62.4 2390de5a", "osm3s": {"timestamp_osm_base": "2025-01-08T06:29:44Z", "copyright": "The data included in this document is from www.openstreetmap.org. The data is made available under ODbL."}, "elements": [{"type": "node", "id": 187355425, "lat": 37.0278543, "lon": 41.5477065, "tags": {"alt_name": "\u0642\u0628\u0648\u0631 \u0627\u0644\u0628\u064a\u0636", "alt_name:ar": "\u0642\u0628\u0648\u0631 \u0627\u0644\u0628\u064a\u0636", "alt_name:de": "Kubur al-Bid", "alt_name:en": "Qubour al-Bid", "alt_name:fr": "Qubour al-B\u00eed", "alt_name:he": "\u05e7\u05d1\u05d5\u05e8 \u05d0\u05dc-\u05d1\u05d9\u05d3", "alt_name:ja": "\u30af\u30d6\u30fc\u30eb\u30fb\u30a2\u30eb\u30a0\u30d3\u30fc\u30c9", "alt_name:ko": "\uafb8\ubd80\ub974\uc54c\ube44\ub4dc", "alt_name:ru": "\u041a\u0443\u0431\u0443\u0440-\u0430\u043b\u044c-\u0411\u0438\u0434", "name": "\u0627\u0644\u0642\u062d\u0637\u0627\u0646\u064a\u0629", "name:ar": "\u0627\u0644\u0642\u062d\u0637\u0627\u0646\u064a\u0629", "name:arc": "\u0729\u0712\u072a\u0308\u0710 \u071a\u0718\u072a\u0308\u0710", "name:ckb": "\u062a\u0631\u0628\u06d5\u0633\u067e\u06cc", "name:de": "al-Kahtanija", "name:en": "Al-Qahtaniya", "name:fr": "Al-Qahtania", "name:he": "\u05d0\u05dc-\u05e7\u05d7\u05d8\u05d0\u05e0\u05d9\u05d4", "name:ja": "\u30a2\u30eb\u30a0\u30ab\u30d8\u30bf\u30cb\u30e4", "name:ko": "\uc54c\uce74\ud750\ud0c0\ub2c8\uc57c", "name:ku": "Tirbesp\u00ee", "name:ml": "\u0d05\u0d7d-\u0d16\u0d39\u0d4d\u0d1f\u0d3e\u0d28\u0d3f\u0d2f", "name:ru": "\u0410\u043b\u044c-\u041a\u0430\u0445\u0442\u0430\u043d\u0438\u0301\u0439\u044f", "name:syc": "\u0729\u0712\u072a\u0308\u0710 \u071a\u0718\u072a\u0308\u0710", "place": "town", "population": "16946", "population:date": "2004", "source:population": "\u0627\u0644\u0645\u0643\u062a\u0628 \u0627\u0644\u0645\u0631\u0643\u0632\u064a \u0644\u0644\u0625\u062d\u0635\u0627\u0621", "wikidata": "Q129954", "wikipedia": "ar:\u0627\u0644\u0642\u062d\u0637\u0627\u0646\u064a\u0629 (\u0633\u0648\u0631\u064a\u0627)"}}, {"type": "node", "id": 567215083, "lat": 36.9869503, "lon": 41.8199502, "tags": {"alt_name": "\u062c\u064a\u0644 \u0622\u063a\u0627", "alt_name:ar": "\u062c\u064a\u0644 \u0622\u063a\u0627", "alt_name:ku": "\u1e08il Axe", "name": "\u0627\u0644\u062c\u0648\u0627\u062f\u064a\u0629", "name:ar": "\u0627\u0644\u062c\u0648\u0627\u062f\u064a\u0629", "name:ckb": "\u0686\u0644\u0627\u063a\u0627", "name:de": "al-Dschawadija", "name:en": "Al-Jawadiya", "name:fr": "Al-Djaouadi\u00e9", "name:he": "\u05d0\u05dc-\u05d2\u05f3\u05d5\u05d5\u05d0\u05d3\u05d9\u05d4", "name:ja": "\u30a2\u30eb\u30a0\u30b8\u30e3\u30ef\u30c7\u30a3\u30e4", "name:ko": "\uc54c\uc790\uc640\ub514\uc57c", "name:ku": "\u00c7ilaxa", "name:ml": "\u0d05\u0d7d-\u0d1c\u0d35\u0d3e\u0d26\u0d3f\u0d2f", "name:ru": "\u0410\u043b\u044c-\u0414\u0436\u0430\u0432\u0430\u0434\u0438\u0301\u0439\u044f", "place": "town", "population": "6630", "population:date": "2004", "source:population": "\u0627\u0644\u0645\u0643\u062a\u0628 \u0627\u0644\u0645\u0631\u0643\u0632\u064a \u0644\u0644\u0625\u062d\u0635\u0627\u0621"}}, {"type": "node", "id": 1468837458, "lat": 36.937649, "lon": 41.3595136}, {"type": "node", "id": 1468837471, "lat": 36.9373317, "lon": 41.3603397}, {"type": "node", "id": 1468837487, "lat": 36.9361723, "lon": 41.3620767}, {"type": "node", "id": 1468837504, "lat": 36.9367657, "lon": 41.3614555}, {"type": "node", "id": 1468837520, "lat": 36.9367915, "lon": 41.3609298}, {"type": "node", "id": 1468837521, "lat": 36.9369801, "lon": 41.3605436}, {"type": "node", "id": 1468837561, "lat": 36.935229, "lon": 41.3624415}, {"type": "node", "id": 1468837567, "lat": 36.9377605, "lon": 41.3601895}, {"type": "node", "id": 1468837662, "lat": 36.9368841, "lon": 41.3622484}, {"type": "node", "id": 1468837689, "lat": 36.935006, "lon": 41.3623557}, {"type": "node", "id": 1468837695, "lat": 36.9370727, "lon": 41.3576779}, {"type": "node", "id": 1468837718, "lat": 36.937107, "lon": 41.3586006}, {"type": "node", "id": 1468837720, "lat": 36.9346716, "lon": 41.3602743}, {"type": "node", "id": 1468837795, "lat": 36.9347059, "lon": 41.3610682}, {"type": "node", "id": 1468837830, "lat": 36.9378874, "lon": 41.3596842}, {"type": "node", "id": 1468837835, "lat": 36.9352907, "lon": 41.3577326}, {"type": "node", "id": 1468837871, "lat": 36.9350746, "lon": 41.3579247}, {"type": "node", "id": 1468837909, "lat": 36.9348448, "lon": 41.3619598}, {"type": "node", "id": 1468837915, "lat": 36.934982, "lon": 41.3571104}, {"type": "node", "id": 1468837932, "lat": 36.9345275, "lon": 41.3573357}, {"type": "node", "id": 1468837962, "lat": 36.9366611, "lon": 41.3622806}, {"type": "node", "id": 1468838017, "lat": 36.9362666, "lon": 41.3624093}, {"type": "node", "id": 1468838021, "lat": 36.937872, "lon": 41.3599964}, {"type": "way", "id": 133434819, "nodes": [1468837962, 1468838017, 1468837487, 1468837561, 1468837689, 1468837909, 1468837795, 1468837720, 1468837871, 1468837932, 1468837915, 1468837835, 1468837695, 1468837718, 1468837458, 1468837830, 1468838021, 1468837567, 1468837471, 1468837521, 1468837520, 1468837504, 1468837662, 1468837962], "tags": {"name": "\u0631\u062d\u064a\u0629 \u0627\u0644\u0635\u063a\u064a\u0631\u0629", "name:fr": "Hay\u00e9 es S\u00e9rh\u00eer\u00e9", "name:uk": "\u0420\u0430\u0445\u0456\u044f \u0430\u0441-\u0421\u0430\u0433\u0456\u0440\u0430", "place": "city"}}]}