{"version": 0.6, "generator": "Overpass API 0.7.62.4 2390de5a", "osm3s": {"timestamp_osm_base": "2025-01-08T06:27:42Z", "copyright": "The data included in this document is from www.openstreetmap.org. The data is made available under ODbL."}, "elements": [{"type": "node", "id": 29090735, "lat": 31.7788242, "lon": 35.2257626, "tags": {"admin_level": "2", "alt_name:ar": "\u0623\u0648\u0631\u0634\u0644\u064a\u0645", "alt_name:fa": "\u0628\u06cc\u062a \u0627\u0644\u0645\u0642\u062f\u0633", "alt_name:is": "J\u00f3rsalir;J\u00f3rsalaborg", "alt_name:ku": "Quds", "alt_name:ml": "\u0d05\u0d7d-\u0d16\u0d41\u0d26\u0d4d\u200c\u0d38\u0d4d;\u0d0a\u0d7c\u0d36\u0d4d\u0d32\u0d47\u0d02", "alt_name:ur": "\u0628\u06cc\u062a \u0627\u0644\u0645\u0642\u062f\u0633;\u0627\u0644\u0642\u062f\u0633", "alt_name:vi": "Gi\u00earusalem", "capital": "yes", "capital_ISO3166-1": "yes", "int_name": "Jerusalem", "is_capital": "country", "name": "\u05d9\u05e8\u05d5\u05e9\u05dc\u05d9\u05dd", "name:ace": "Yerusalem", "name:af": "Jerusalem", "name:als": "Jerusalem", "name:am": "\u12a5\u12e8\u1229\u1233\u120c\u121d", "name:an": "Cherusalem", "name:ang": "Ierusalem", "name:ar": "\u0627\u0644\u0642\u062f\u0633", "name:arc": "\u0710\u0718\u072a\u072b\u0720\u0721", "name:arz": "\u0627\u0644\u0642\u062f\u0633", "name:as": "\u099c\u09c7\u09f0\u09c1\u099c\u09be\u09b2\u09c7\u09ae", "name:ast": "Xerusal\u00e9n", "name:av": "\u0411\u0430\u0439\u0442\u0443\u043b \u041c\u0430\u043a\u044a\u0434\u0438\u0441", "name:az": "Jerusalem", "name:azb": "\u0628\u06cc\u062a\u200c\u0627\u0644\u0645\u0642\u062f\u0633", "name:ba": "\u04a0\u043e\u0442\u0434\u043e\u0441", "name:bar": "Jerusalem", "name:bat-smg": "Jerozal\u0117", "name:bcl": "Herusalem", "name:be": "\u0406\u0435\u0440\u0443\u0441\u0430\u043b\u0456\u043c", "name:be-tarask": "\u0415\u0440\u0443\u0441\u0430\u043b\u0456\u043c", "name:bg": "\u0419\u0435\u0440\u0443\u0441\u0430\u043b\u0438\u043c", "name:bh": "\u092f\u0947\u0930\u0941\u0936\u0932\u092e", "name:bjn": "Baitul Maqdis", "name:bm": "Jerusalem", "name:bn": "\u099c\u09c7\u09b0\u09c1\u09b8\u09be\u09b2\u09c7\u09ae", "name:bo": "\u0f47\u0f7a\u0f0b\u0f62\u0f74\u0f0b\u0f66\u0f0b\u0f63\u0f7a\u0f58\u0f0d", "name:br": "Jeruzalem", "name:bs": "Jerusalem", "name:bxr": "\u0418\u0435\u0440\u0443\u0441\u0430\u043b\u0438\u043c", "name:ca": "Jerusalem", "name:cdo": "I\u00e0-l\u00f4-s\u00e1k-l\u0113ng", "name:ce": "\u041a\u044a\u0443\u0434\u0441-\u0413\u04c0\u0430\u043b\u0430", "name:ceb": "Jerusalen", "name:ch": "Jerusalem", "name:chr": "\u13e5\u13b7\u13cf\u13b3\u13bb", "name:ckb": "\u0626\u06c6\u0631\u0634\u06d5\u0644\u06cc\u0645", "name:cr": "\u1489\u1552\u1405\u14f4\u14ec\u140a\u14bc", "name:crh": "Jerusalem", "name:cs": "Jeruzal\u00e9m", "name:csb": "Jerozol\u00ebma", "name:cu": "\u0407\u0454\u0440\u043e\u0443\u0441\u0430\u043b\u0438\u043c\u044a", "name:cv": "\u0418\u0435\u0440\u0443\u0441\u0430\u043b\u0438\u043c", "name:cy": "Jeriwsalem", "name:da": "Jerusalem", "name:de": "Jerusalem", "name:diq": "Ur\u015felim", "name:dsb": "Jeruzalem", "name:dty": "\u091c\u0947\u0930\u0941\u0936\u0932\u092e", "name:dv": "\u07a4\u07aa\u078b\u07aa\u0790\u07b0", "name:el": "\u0399\u03b5\u03c1\u03bf\u03c5\u03c3\u03b1\u03bb\u03ae\u03bc", "name:en": "Jerusalem", "name:eo": "Jerusalemo", "name:es": "Jerusal\u00e9n", "name:et": "Jeruusalemm", "name:eu": "Jerusalem", "name:ext": "Jerusal\u00e9n", "name:fa": "\u0627\u0648\u0631\u0634\u0644\u06cc\u0645", "name:fi": "Jerusalem", "name:fj": "Jerusalemi", "name:fo": "Jer\u00fasalem", "name:fr": "J\u00e9rusalem", "name:frr": "Jerusalem", "name:fur": "Jerusalem", "name:fy": "Jeruzalim", "name:ga": "Iar\u00fasail\u00e9im", "name:gan": "\u8036\u8def\u6492\u51b7", "name:gcr": "J\u00e9rusalem", "name:gd": "Ierusalem", "name:gl": "Xerusal\u00e9n", "name:gn": "Herusal\u1ebd", "name:got": "\ud800\udf39\ud800\udf30\ud800\udf39\ud800\udf42\ud800\udf3f\ud800\udf43\ud800\udf30\ud800\udf3f\ud800\udf3b\ud800\udf45\ud800\udf3c\ud800\udf30", "name:gv": "Jerusalem", "name:hak": "Y\u00e2-lu-sat-l\u00e2ng", "name:he": "\u05d9\u05e8\u05d5\u05e9\u05dc\u05d9\u05dd", "name:he1": "\u05d9\u05b0\u05e8\u05d5\u05bc\u05e9\u05b8\u05c1\u05dc\u05b7\u05d9\u05b4\u05dd", "name:hi": "\u092f\u0930\u0941\u0936\u0932\u092e", "name:hif": "Jerusalem", "name:hr": "Jeruzalem", "name:hsb": "Jeruzalem", "name:hu": "Jeruzs\u00e1lem", "name:hy": "\u0535\u0580\u0578\u0582\u057d\u0561\u0572\u0565\u0574", "name:ia": "Jerusalem", "name:id": "Yerusalem", "name:ie": "Jerusalem", "name:ig": "Jerusalem", "name:ilo": "Herusalem", "name:inh": "\u0411\u0430\u0439\u0442\u0443\u043b\u043c\u0430\u043a\u044a\u0434\u0438\u0441", "name:io": "Ierusalem", "name:is": "Jer\u00fasalem", "name:it": "Gerusalemme", "name:ja": "\u30a8\u30eb\u30b5\u30ec\u30e0", "name:jam": "Jiruusalem", "name:jv": "Y\u00e9rusalem", "name:ka": "\u10d8\u10d4\u10e0\u10e3\u10e1\u10d0\u10da\u10d8\u10db\u10d8", "name:kaa": "Jerusalem", "name:kab": "Orcalim", "name:kbp": "Jeruzal\u025bm", "name:ki": "Jerusalem", "name:kk": "\u04d8\u043b-\u049a\u04b1\u0434\u044b\u0441", "name:kn": "\u0c9c\u0cc6\u0cb0\u0cc1\u0cb8\u0cb2\u0cc6\u0c82", "name:ko": "\uc608\ub8e8\uc0b4\ub818", "name:ku": "Or\u015fel\u00eem", "name:kv": "\u0418\u0435\u0440\u0443\u0441\u0430\u043b\u0438\u043c", "name:kw": "Jerusalem", "name:ky": "\u041a\u0443\u0434\u0443\u0441", "name:la": "Hierosolyma", "name:lad": "Yerushalayim", "name:lb": "Jerusalem", "name:lez": "\u0418\u0435\u0440\u0443\u0441\u0430\u043b\u0438\u043c", "name:lfn": "Ieruxalim", "name:li": "Jeruzalem", "name:lij": "Gerusalemme", "name:lld": "Ierusalem", "name:lmo": "Ger\u00fcsalem", "name:ln": "Yerusal\u00e9mi", "name:lo": "\u0ec0\u0ea2\u200b\u0ea3\u0eb9\u200b\u0e8a\u0eb2\u200b\u0ec0\u0ea5\u0eb1\u0ea1", "name:lt": "Jeruzal\u0117", "name:lv": "Jeruz\u0101leme", "name:mai": "\u091c\u0947\u0930\u0941\u0938\u0947\u0932\u092e", "name:mdf": "\u0415\u0440\u0443\u0441\u0430\u043b\u0438\u043c", "name:mg": "Jerosalema", "name:mhr": "\u0418\u0435\u0440\u0443\u0441\u0430\u043b\u0438\u043c", "name:mi": "Hiruharama", "name:mk": "\u0415\u0440\u0443\u0441\u0430\u043b\u0438\u043c", "name:ml": "\u0d2f\u0d46\u0d30\u0d41\u0d36\u0d32\u0d47\u0d02", "name:mn": "\u0418\u0435\u0440\u0443\u0441\u0430\u043b\u0438\u043c", "name:mr": "\u091c\u0947\u0930\u0941\u0938\u0932\u0947\u092e", "name:ms": "Baitulmuqaddis", "name:mwl": "Jarusalen", "name:my": "\u1002\u103b\u1031\u101b\u102f\u1006\u101c\u1004\u103a\u1019\u103c\u102d\u102f\u1037", "name:myv": "\u0418\u0435\u0440\u0443\u0441\u0430\u043b\u0438\u043c", "name:mzn": "\u0642\u062f\u0633", "name:nah": "Ierusalem", "name:nan": "I\u00e2-l\u014d\u0358-sat-l\u00e9ng", "name:nap": "Gierusalemme", "name:nds": "Jerusalem", "name:ne": "\u091c\u0947\u0930\u0941\u0938\u0947\u0932\u092e", "name:nl": "Jeruzalem", "name:no": "Jerusalem", "name:nov": "Jerusalem", "name:nrm": "J\u00e9rusalem", "name:ny": "Jerusalem", "name:oc": "Jerusal\u00e8m", "name:olo": "Jerusalimu", "name:or": "\u0b1c\u0b47\u0b30\u0b41\u0b38\u0b3e\u0b32\u0b47\u0b2e", "name:os": "\u0418\u0435\u0440\u0443\u0441\u0430\u043b\u0438\u043c", "name:pa": "\u0a1c\u0a47\u0a30\u0a42\u0a38\u0a32\u0a2e", "name:pap": "Herusalem", "name:pih": "Jeruusalem", "name:pl": "Jerozolima", "name:pms": "Gerusalem", "name:pnb": "\u06cc\u0631\u0648\u0634\u0644\u0645", "name:pnt": "\u0399\u03b5\u03c1\u03bf\u03c5\u03c3\u03b1\u03bb\u03ae\u03bc", "name:ps": "\u0628\u064a\u062a \u0627\u0644\u0645\u0642\u062f\u0633", "name:pt": "Jerusal\u00e9m", "name:qu": "Yerushalayim", "name:rm": "Jerusalem", "name:rmy": "Jerusalem", "name:rn": "Jerusalem", "name:ro": "Ierusalim", "name:roa-tara": "Gerusalemme", "name:ru": "\u0418\u0435\u0440\u0443\u0441\u0430\u043b\u0438\u043c", "name:rue": "\u0404\u0440\u0443\u0441\u0430\u043b\u0438\u043c", "name:rw": "Yerusalemu", "name:sah": "\u0418\u0435\u0440\u0443\u0441\u0430\u043b\u0438\u043c", "name:sat": "\u1c61\u1c6e\u1c68\u1c69\u1c65\u1c5f\u1c5e\u1c64\u1c62", "name:sc": "Gerusalemme", "name:scn": "Girusalemmi", "name:sco": "Jerusalem", "name:sd": "\u0628\u064a\u062a \u0627\u0644\u0645\u0642\u062f\u0633", "name:sh": "Jeruzalem", "name:sk": "Jeruzalem", "name:sl": "Jeruzalem", "name:sm": "Ierusalema", "name:smn": "Jerusalem", "name:sn": "Jerusalem", "name:so": "Qudus", "name:sq": "Jeruzalemi", "name:sr": "\u0408\u0435\u0440\u0443\u0441\u0430\u043b\u0438\u043c", "name:srn": "Jerusalem", "name:stq": "Jerusalem", "name:su": "Yerusalem", "name:sv": "Jerusalem", "name:sw": "Yerusalemu", "name:szl": "Jerozolima", "name:ta": "\u0baf\u0bc6\u0bb0\u0bc2\u0b9a\u0bb2\u0bae\u0bcd", "name:te": "\u0c1c\u0c46\u0c30\u0c42\u0c38\u0c32\u0c47\u0c02", "name:tg": "\u0423\u0440\u0448\u0430\u043b\u0438\u043c", "name:th": "\u0e40\u0e22\u0e23\u0e39\u0e0b\u0e32\u0e40\u0e25\u0e21", "name:tk": "I\u00fderusalim", "name:tl": "Herusalem", "name:tpi": "Yerusalem", "name:tr": "Kud\u00fcs", "name:tt": "\u0418\u0435\u0440\u0443\u0441\u0430\u043b\u0438\u043c", "name:tum": "Jerusalem", "name:udm": "\u0418\u0435\u0440\u0443\u0441\u0430\u043b\u0438\u043c", "name:ug": "\u064a\u06d0\u0631\u06c7\u0633\u0627\u0644\u06d0\u0645", "name:uk": "\u0404\u0440\u0443\u0441\u0430\u043b\u0438\u043c", "name:ur": "\u06cc\u0631\u0648\u0634\u0644\u0645", "name:uz": "Quddus", "name:vec": "Hierusalem", "name:vep": "Jerusalim", "name:vi": "Jerusalem", "name:vo": "Hierusalem", "name:vro": "Jeruusalemm", "name:wa": "Djeruzalem", "name:war": "Jerusalem", "name:wuu": "\u8036\u8def\u6492\u51b7", "name:xh": "IJerusalem", "name:xmf": "\u10d8\u10d4\u10e0\u10e3\u10e1\u10d0\u10da\u10d8\u10db\u10d8", "name:yi": "\u05d9\u05e8\u05d5\u05e9\u05dc\u05d9\u05dd", "name:yo": "Jer\u00fas\u00e1l\u1eb9\u0301m\u00f9", "name:yue": "\u8036\u8def\u6492\u51b7", "name:zea": "Jeruzalem", "name:zh": "\u8036\u8def\u6492\u51b7", "name:zh-Hant": "\u8036\u8def\u6492\u51b7", "name:zu": "IYerusalem", "place": "city", "population": "780200", "wikidata": "Q1218", "wikipedia": "en:Jerusalem", "wikipedia:en": "Jerusalem"}}, {"type": "node", "id": 246843682, "lat": 31.8860239, "lon": 35.1704423, "tags": {"name": "\u0628\u064a\u062a\u0648\u0646\u064a\u0627\u200e", "name:ar": "\u0628\u064a\u062a\u0648\u0646\u064a\u0627\u200e", "name:cs": "Bajt\u00fanj\u00e1", "name:en": "Bitunia", "name:fr": "Beitunia", "name:he": "\u05d1\u05d9\u05ea\u05d5\u05e0\u05d9\u05d0", "place": "town", "wikidata": "Q528941"}}, {"type": "node", "id": 246843686, "lat": 31.9030543, "lon": 35.1952255, "tags": {"alt_name:cs": "Ramall\u00e1h", "alt_name:ru": "\u0420\u0430\u043c\u0430", "capital": "yes", "is_capital": "country", "name": "\u0631\u0627\u0645 \u0627\u0644\u0644\u0647", "name:ar": "\u0631\u0627\u0645 \u0627\u0644\u0644\u0647", "name:cs": "R\u00e1mal\u00e1h", "name:de": "Ramallah", "name:el": "\u03a1\u03b1\u03bc\u03ac\u03bb\u03b1", "name:en": "Ramallah", "name:es": "Ramala", "name:eu": "Ramallah", "name:fa": "\u0631\u0627\u0645\u200c\u0627\u0644\u0644\u0647", "name:fr": "Ramallah", "name:he": "\u05e8\u05de\u05d0\u05dc\u05dc\u05d4", "name:hi": "\u0930\u093e\u092e\u0932\u094d\u0932\u093e", "name:hu": "R\u00e1mall\u00e1h", "name:id": "Ramallah", "name:it": "Ramallah", "name:ks": "\u0631\u0627\u0645 \u0627\u0644\u0644\u06c1", "name:ml": "\u0d31\u0d3e\u0d2e\u0d33\u0d4d\u0d33", "name:no": "Ramallah", "name:pl": "Ramallah", "name:pnb": "\u0631\u0627\u0645 \u0627\u0644\u0644\u06c1", "name:ps": "\u0631\u0627\u0645 \u0627\u0644\u0644\u0647", "name:pt": "Ramal\u00e1", "name:ru": "\u0420\u0430\u043c\u0430\u043b\u043b\u0430", "name:sk": "Ramall\u00e1h", "name:sl": "Ramala", "name:ta": "\u0bb0\u0bae\u0bb2\u0bcd\u0bb2\u0bbe", "name:uk": "\u0420\u0430\u043c\u0430\u043b\u043b\u0430", "name:ur": "\u0631\u0627\u0645 \u0627\u0644\u0644\u06c1", "name:zh": "\u62c9\u59c6\u5b89\u62c9", "place": "city", "population": "27460", "wikidata": "Q158119", "wikipedia": "ar:\u0631\u0627\u0645 \u0627\u0644\u0644\u0647", "wikipedia:ar": "\u0631\u0627\u0645 \u0627\u0644\u0644\u0647"}}, {"type": "node", "id": 246843692, "lat": 31.8623329, "lon": 35.1687498, "tags": {"name": "\u05d2\u05d1\u05e2\u05ea \u05d6\u05d0\u05d1", "name:ar": "\u062c\u064a\u0641\u0639\u0627\u062a \u0632\u0626\u064a\u0641", "name:cs": "Giv'at Ze'ev", "name:en": "Givat Zeev", "name:fr": "Giv'at Ze'ev", "name:he": "\u05d2\u05d1\u05e2\u05ea \u05d6\u05d0\u05d1", "name:ru": "\u0413\u0438\u0432\u0430\u0442-\u0417\u0435\u0435\u0432", "place": "town", "population": "11200", "wikidata": "Q2369607", "wikipedia": "he:\u05d2\u05d1\u05e2\u05ea \u05d6\u05d0\u05d1", "wikipedia:he": "\u05d2\u05d1\u05e2\u05ea \u05d6\u05d0\u05d1"}}, {"type": "node", "id": 256724756, "lat": 32.0851611, "lon": 35.1815442, "tags": {"name": "\u0633\u0644\u0641\u064a\u062a", "name:ar": "\u0633\u0644\u0641\u064a\u062a", "name:en": "Salfit", "name:es": "Salfit", "name:eu": "Salfit", "name:fr": "Salfit", "name:he": "\u05e1\u05dc\u05e4\u05d9\u05ea", "name:ml": "\u0d38\u0d7d\u0d2b\u0d40\u0d24\u0d4d\u0d24\u0d4d", "name:ru": "\u0421\u0430\u043b\u044c\u0444\u0438\u0442", "place": "town", "population": "8796", "wikidata": "Q1972013"}}, {"type": "node", "id": 282405648, "lat": 31.7705643, "lon": 35.2987457, "tags": {"name": "\u05de\u05e2\u05dc\u05d4 \u05d0\u05d3\u05d5\u05de\u05d9\u05dd", "name:ar": "\u0645\u0639\u0627\u0644\u064a\u0647 \u0623\u062f\u0648\u0645\u064a\u0645", "name:cs": "Ma'ale Adumim", "name:en": "Maale Adumim", "name:fr": "Ma'aleh Adumim", "name:he": "\u05de\u05e2\u05dc\u05d4 \u05d0\u05d3\u05d5\u05de\u05d9\u05dd", "name:hi": "\u092e\u093e\u0932\u0947 \u0905\u0926\u0941\u092e\u0940\u092e", "name:ml": "\u0d2e\u0d3e\u0d32\u0d46 \u0d05\u0d26\u0d41\u0d2e\u0d40\u0d02", "name:ru": "\u041c\u0430\u0430\u043b\u0435 \u0410\u0434\u0443\u043c\u0438\u043c", "name:ur": "\u0645\u0639\u0627\u0644\u06cc \u0627\u062f\u0648\u0645\u06cc\u0645", "place": "city", "population": "32000", "wikidata": "Q502272", "wikipedia": "he:\u05de\u05e2\u05dc\u05d4 \u05d0\u05d3\u05d5\u05de\u05d9\u05dd", "wikipedia:he": "\u05de\u05e2\u05dc\u05d4 \u05d0\u05d3\u05d5\u05de\u05d9\u05dd"}}, {"type": "node", "id": 332787821, "lat": 31.8694015, "lon": 35.0661639, "tags": {"name": "\u0628\u064a\u062a \u0644\u0642\u064a\u0627", "name:ar": "\u0628\u064a\u062a \u0644\u0642\u064a\u0627", "name:cs": "Bajt Likj\u00e1", "name:en": "Beit Liqya", "name:fr": "Beit Liqya", "name:he": "\u05d1\u05d9\u05ea \u05dc\u05d9\u05e7\u05d9\u05d0", "place": "town", "wikidata": "Q4881453"}}, {"type": "node", "id": 332791003, "lat": 31.7020867, "lon": 35.2297392, "tags": {"alt_name:ru": "\u041f\u043e\u043b\u0435 \u041f\u0430\u0441\u0442\u044b\u0440\u0435\u0439", "name": "\u0628\u064a\u062a \u0633\u0627\u062d\u0648\u0631", "name:ar": "\u0628\u064a\u062a \u0633\u0627\u062d\u0648\u0631", "name:de": "Bait Sahur", "name:el": "\u03a7\u03c9\u03c1\u03af\u03bf\u03bd \u03c4\u03c9\u03bd \u03a0\u03bf\u03b9\u03bc\u03ad\u03bd\u03c9\u03bd", "name:en": "Beit Sahur", "name:fi": "Beit Sahur", "name:fr": "Beit Sahour", "name:he": "\u05d1\u05d9\u05ea \u05e1\u05d0\u05d7\u05d5\u05e8", "name:la": "Pastorum", "name:ml": "\u0d2c\u0d46\u0d2f\u0d4d\u0d24\u0d4d\u0d24\u0d4d \u0d38\u0d3e\u0d39\u0d41\u0d7c", "name:ru": "\u0411\u0435\u0439\u0442-\u0421\u0430\u0445\u0443\u0440", "name:uk": "\u0411\u0435\u0439\u0442-\u0421\u0430\u0445\u0443\u0440", "place": "town", "population": "15400", "wikidata": "Q803990"}}, {"type": "node", "id": 332791054, "lat": 31.7155219, "lon": 35.1873686, "tags": {"name": "\u0628\u064a\u062a \u062c\u0627\u0644\u0627", "name:ar": "\u0628\u064a\u062a \u062c\u0627\u0644\u0627", "name:cs": "Bajt D\u017e\u00e1l\u00e1", "name:de": "Bait Dschala", "name:en": "Beit Jala", "name:fr": "Beit Jala", "name:he": "\u05d1\u05d9\u05ea \u05d2'\u05d0\u05dc\u05d4", "name:ml": "\u0d2c\u0d46\u0d2f\u0d4d\u0d24\u0d4d\u0d24\u0d4d \u0d1c\u0d3e\u0d32", "name:ru": "\u0411\u0435\u0439\u0442-\u0414\u0436\u0430\u043b\u0430", "place": "town", "population": "11758", "wikidata": "Q803984", "wikipedia": "de:Bait Dschala", "wikipedia:de": "Bait Dschala"}}, {"type": "node", "id": 332793423, "lat": 31.7642353, "lon": 35.2584499, "tags": {"name": "\u0623\u0628\u0648 \u062f\u064a\u0633", "name:ar": "\u0623\u0628\u0648 \u062f\u064a\u0633", "name:azb": "\u0627\u0628\u0648 \u062f\u06cc\u0633", "name:ca": "Abu Dis", "name:de": "Abu Dis", "name:en": "Abu Dis", "name:es": "Abu Dis", "name:fa": "\u0627\u0628\u0648 \u062f\u06cc\u0633", "name:fi": "Abu Dis", "name:fr": "Abu Dis", "name:gl": "Abu Dis", "name:he": "\u05d0\u05d1\u05d5 \u05d3\u05d9\u05e1", "name:id": "Abu Dis", "name:ks": "\u0627\u0628\u0648 \u062f\u06cc\u0633", "name:ml": "\u0d05\u0d2c\u0d41 \u0d26\u0d40\u0d38\u0d4d", "name:nl": "Abu Dis", "name:nn": "Abu Dis", "name:pl": "Abu Dis", "name:ro": "Abu Dis", "name:ru": "\u0410\u0431\u0443-\u0414\u0438\u0441", "name:uk": "\u0410\u0431\u0443-\u0414\u0456\u0441", "name:ur": "\u0627\u0628\u0648 \u062f\u06cc\u0633", "place": "town", "population": "12251", "population:date": "2016", "source": "http://vprofile.arij.org/jerusalem/ar/pdfs/vprofile/Abu%20Dis_Ar.pdf", "wikidata": "Q246590", "wikipedia": "ar:\u0623\u0628\u0648 \u062f\u064a\u0633", "wikipedia:ar": "\u0623\u0628\u0648 \u062f\u064a\u0633"}}, {"type": "node", "id": 332793704, "lat": 31.7731513, "lon": 35.259589, "tags": {"alt_name:ar": "\u0639\u064a\u0632\u0631\u064a\u0629;\u0627\u0644\u0639\u064a\u0632\u0631\u064a\u0647\u200e", "alt_name:he": "\u05d1\u05d9\u05ea \u05e2\u05e0\u05d9\u05d0", "alt_name:ml": "\u0d2c\u0d46\u0d25\u0d28\u0d4d\u0d2f", "alt_name:ru": "\u0410\u043b\u044c-\u0410\u0437\u0430\u0440\u0438\u044f", "name": "\u0627\u0644\u0639\u064a\u0632\u0631\u064a\u0629", "name:ar": "\u0627\u0644\u0639\u064a\u0632\u0631\u064a\u0629", "name:ca": "Al-Eizariya", "name:cs": "Al-Eizariya", "name:de": "Bethanien", "name:en": "al-Eizariya", "name:es": "Al Azariyeh", "name:fa": "\u0627\u0644\u0639\u06cc\u0632\u0631\u06cc\u0647", "name:fi": "Al-Eizariya", "name:fr": "Al-Eizariya", "name:he": "\u05d0\u05dc-\u05e2\u05d9\u05d6\u05e8\u05d9\u05d4", "name:hi": "\u092c\u0947\u0925\u093e\u0928\u0940", "name:ml": "\u0d05\u0d7d-\u0d10\u0d38\u0d31\u0d3f\u0d2f", "name:nl": "Al-Eizariya", "name:nn": "Al-Eizariya", "name:pl": "Al-Ajzarijja", "name:ro": "Betania", "name:ru": "\u0412\u0438\u0444\u0430\u043d\u0438\u044f", "name:sv": "El-Azariyeh", "name:ur": "\u0627\u0644\u0639\u06cc\u0632\u0631\u06cc\u06c1", "name:wo": "Betani bu Yerusalem", "old_name:ar": "\u0628\u064a\u062a \u0639\u0646\u064a\u0627;\u0628\u064a\u062a \u0627\u0644\u0628\u0624\u0633;\u0628\u064a\u062a \u0627\u0644\u062a\u0645\u0648\u0631", "old_name:en": "Bethany", "old_name:fr": "B\u00e9thanie", "old_name:he": "\u05d1\u05d9\u05ea \u05e2\u05e0\u05d9\u05d4", "old_name:it": "Betania", "place": "town", "population": "21175", "source": "http://vprofile.arij.org/jerusalem/ar/pdfs/vprofile/Al%20Ezariya_Ar.pdf", "wikidata": "Q2181579", "wikipedia": "ar:\u0627\u0644\u0639\u064a\u0632\u0631\u064a\u0629", "wikipedia:ar": "\u0627\u0644\u0639\u064a\u0632\u0631\u064a\u0629"}}, {"type": "node", "id": 332793775, "lat": 31.8512254, "lon": 35.235854, "tags": {"name": "\u0627\u0644\u0631\u0627\u0645", "name:ar": "\u0627\u0644\u0631\u0627\u0645", "name:cs": "ar-Ram", "name:en": "ar-Ram", "name:fr": "Al-Ram", "name:he": "\u05d0-\u05e8\u05d0\u05dd", "official_name:ar": "\u0627\u0644\u0631\u0627\u0645 \u0648\u0636\u0627\u062d\u064a\u0629 \u0627\u0644\u0628\u0631\u064a\u062f", "official_name:en": "ar-Ram and Dahiyat al-Bareed", "official_name:he": "\u05d0-\u05e8\u05d0\u05dd \u05d5\u05d3'\u05d0\u05d7\u05d9\u05ea \u05d0\u05dc-\u05d1\u05e8\u05d9\u05d3", "place": "town", "population": "25595", "source": "http://vprofile.arij.org/jerusalem/ar/pdfs/vprofile/Ar%20Ram_Ar.pdf", "wikidata": "Q775087"}}, {"type": "node", "id": 332794378, "lat": 31.8350186, "lon": 35.1468733, "tags": {"is_in:country_code": "PS", "is_in:state": "Jerusalem", "is_in:state_code": "JEM", "name": "\u0628\u062f\u0651\u0648\u200e", "name:ar": "\u0628\u062f\u0651\u0648\u200e", "name:cs": "Bidd\u00fa", "name:en": "Biddu", "name:fr": "Biddu", "name:he": "\u05d1\u05d9\u05d3\u05d5", "place": "town", "population": "8231", "source": "http://vprofile.arij.org/jerusalem/ar/pdfs/vprofile/Biddu_Tp_Ar.pdf", "wikidata": "Q977521"}}, {"type": "node", "id": 332795287, "lat": 31.8370193, "lon": 35.1251755, "tags": {"is_in:country_code": "PS", "is_in:state": "Jerusalem", "is_in:state_code": "JEM", "name": "\u0642\u0637\u0646\u0651\u0647\u200e", "name:ar": "\u0642\u0637\u0646\u0651\u0647\u200e", "name:cs": "Katanna", "name:en": "Qatanna", "name:fr": "Qatanna", "name:he": "\u05e7\u05d8\u05e0\u05d4", "place": "town", "population": "6981", "source": "http://qatanna.org/data/uploads/files/Qatanna_Ar.pdf;http://vprofile.arij.org/jerusalem/ar/pdfs/vprofile/Qatanna_Vp_Ar.pdf", "wikidata": "Q7267085"}}, {"type": "node", "id": 332951968, "lat": 31.6947314, "lon": 35.1668486, "tags": {"name": "\u0627\u0644\u062e\u0636\u0631\u200e", "name:cs": "al-Chadr", "name:en": "al-Khader", "name:fr": "Al-Khader", "name:he": "\u05d0\u05dc-\u05d7'\u05d3\u05e8", "name:ml": "\u0d05\u0d7d-\u0d16\u0d26\u0d7c", "place": "town", "wikidata": "Q1996562"}}, {"type": "node", "id": 332955945, "lat": 31.7008785, "lon": 35.1799828, "tags": {"name": "\u0627\u0644\u062f\u0648\u062d\u0629", "name:en": "a-Doha", "name:fr": "Al-Dawha", "name:he": "\u05d0-\u05d3\u05d5\u05d7\u05d4", "name:ml": "\u0d05\u0d26\u0d4d-\u0d26\u0d4b\u0d39", "name:ru": "\u0430-\u0414\u043e\u0445\u0430", "place": "town", "wikidata": "Q4702335"}}, {"type": "node", "id": 334466446, "lat": 31.8082981, "lon": 35.2573042, "tags": {"alt_name:en": "Anata", "name": "\u0639\u0646\u0627\u062a\u0627\u200e", "name:ar": "\u0639\u0646\u0627\u062a\u0627\u200e", "name:en": "'Anata", "name:fr": "Anata", "name:he": "\u05e2\u05e0\u05d0\u05ea\u05d0", "name:ml": "\u0d05\u0d28\u0d3e\u0d24\u0d4d\u0d24", "place": "town", "population": "16919", "source": "http://vprofile.arij.org/jerusalem/ar/pdfs/vprofile/Anata_Ar.pdf", "wikidata": "Q2061100"}}, {"type": "node", "id": 344104241, "lat": 31.7801779, "lon": 35.1738443}, {"type": "node", "id": 344104243, "lat": 31.7804482, "lon": 35.1724328}, {"type": "node", "id": 344104244, "lat": 31.7810595, "lon": 35.1716755}, {"type": "node", "id": 344104246, "lat": 31.7825479, "lon": 35.1709975}, {"type": "node", "id": 344104247, "lat": 31.7838612, "lon": 35.1707657}, {"type": "node", "id": 344104248, "lat": 31.7850067, "lon": 35.1718129}, {"type": "node", "id": 344104249, "lat": 31.7858939, "lon": 35.172263}, {"type": "node", "id": 344104250, "lat": 31.7861959, "lon": 35.1711176}, {"type": "node", "id": 344104251, "lat": 31.786692, "lon": 35.1701048}, {"type": "node", "id": 344104253, "lat": 31.7871735, "lon": 35.1696499}, {"type": "node", "id": 344104254, "lat": 31.7880198, "lon": 35.1697958}, {"type": "node", "id": 344104255, "lat": 31.788721, "lon": 35.170113}, {"type": "node", "id": 344104256, "lat": 31.7891091, "lon": 35.1705799}, {"type": "node", "id": 344104257, "lat": 31.7905222, "lon": 35.1732291}, {"type": "node", "id": 344104259, "lat": 31.7911642, "lon": 35.1745337}, {"type": "node", "id": 344104260, "lat": 31.7913539, "lon": 35.1753577}, {"type": "node", "id": 344104261, "lat": 31.7911861, "lon": 35.1764649}, {"type": "node", "id": 344104263, "lat": 31.7905879, "lon": 35.177409}, {"type": "node", "id": 344104264, "lat": 31.7891288, "lon": 35.1784476}, {"type": "node", "id": 344104265, "lat": 31.7881876, "lon": 35.1790656}, {"type": "node", "id": 344104272, "lat": 31.784779, "lon": 35.178884}, {"type": "node", "id": 344104273, "lat": 31.783781, "lon": 35.1799496}, {"type": "node", "id": 344104275, "lat": 31.7828763, "lon": 35.1800869}, {"type": "node", "id": 344104276, "lat": 31.7818767, "lon": 35.1790999}, {"type": "node", "id": 344104277, "lat": 31.7816797, "lon": 35.1785248}, {"type": "node", "id": 344104279, "lat": 31.7819934, "lon": 35.1781128}, {"type": "node", "id": 344104280, "lat": 31.7821758, "lon": 35.1772889}, {"type": "node", "id": 344104281, "lat": 31.7817424, "lon": 35.1764747}, {"type": "node", "id": 344104283, "lat": 31.78149, "lon": 35.1760615}, {"type": "node", "id": 344104284, "lat": 31.7811419, "lon": 35.1755571}, {"type": "node", "id": 344104285, "lat": 31.780854, "lon": 35.1743175}, {"type": "node", "id": 344104288, "lat": 31.7806709, "lon": 35.1740562}, {"type": "node", "id": 415000885, "lat": 31.6989467, "lon": 35.1137333, "tags": {"ele": "703", "name": "\u05d1\u05d9\u05ea\u05e8 \u05e2\u05d9\u05dc\u05d9\u05ea", "name:ar": "\u0628\u064a\u062a\u0627\u0631 \u0639\u064a\u0644\u064a\u062a", "name:cs": "Bejtar Ilit", "name:en": "Beitar Ilit", "name:en1": "Betar Ilit", "name:en2": "Beitar Elit", "name:en3": "Betar Elit", "name:eu": "Beitar Ilit", "name:fr": "Betar Illit", "name:he": "\u05d1\u05d9\u05ea\u05e8 \u05e2\u05d9\u05dc\u05d9\u05ea", "name:hi": "\u092c\u0948\u0924\u093e\u0930 \u0907\u0932\u093f\u091f", "name:ml": "\u0d2c\u0d46\u0d2f\u0d4d\u0d24\u0d4d\u0d24\u0d3e\u0d7c \u0d07\u0d32\u0d3f\u0d24\u0d4d\u0d24\u0d4d", "name:ru": "\u0411\u0435\u0439\u0442\u0430\u0440-\u0418\u043b\u0438\u0442", "name:ur": "\u0628\u06cc\u062a\u0627\u0631 \u0639\u06cc\u0644\u06cc\u062a", "place": "city", "population": "58985", "website": "https://www.betar-illit.muni.il/", "wikidata": "Q152578", "wikipedia": "he:\u05d1\u05d9\u05ea\u05e8 \u05e2\u05d9\u05dc\u05d9\u05ea", "wikipedia:he": "\u05d1\u05d9\u05ea\u05e8 \u05e2\u05d9\u05dc\u05d9\u05ea"}}, {"type": "node", "id": 431636498, "lat": 31.718588, "lon": 35.2765053, "tags": {"name": "\u0627\u0644\u0639\u0628\u064a\u062f\u064a\u0629", "name:ar": "\u0627\u0644\u0639\u0628\u064a\u062f\u064a\u0629", "name:en": "al-Ubeidiya", "name:fr": "Al-Ubeidiya", "name:he": "\u05d0\u05dc-\u05e2\u05d5\u05d1\u05d9\u05d3\u05d9\u05d4", "name:ml": "\u0d05\u0d7d-\u0d09\u0d2c\u0d48\u0d26\u0d3f\u0d2f", "place": "town", "population": "10753", "wikidata": "Q4703304", "wikipedia": "he:\u05e2\u05d5\u05d1\u05d9\u05d3\u05d9\u05d9\u05d4", "wikipedia:he": "\u05e2\u05d5\u05d1\u05d9\u05d3\u05d9\u05d9\u05d4"}}, {"type": "node", "id": 431636544, "lat": 31.6814564, "lon": 35.2562887}, {"type": "node", "id": 431636549, "lat": 31.7043556, "lon": 35.2061876, "tags": {"alt_name:ar": "\u0628\u064a\u062a \u0627\u0644\u0644\u062d\u0645", "alt_name:br": "Bezhleem", "alt_name:en": "Beit Lahm;Bayt Lahm", "alt_name:grc": "\u0392\u03b7\u03b8\u03bb\u03b5\u03ad\u03bc;\u0392\u03b7\u03b8\u03bb\u03b5\u03b5\u03bc", "alt_name:ka": "\u10d1\u10d4\u10d8\u10d7-\u10da\u10d0\u10f0\u10db\u10d8", "alt_name:ro": "Viflaim;Bethleem;Bethlehem", "alt_name:ru": "\u0411\u0430\u0439\u0442-\u041b\u0430\u0445\u043c", "ele": "765", "image": "https://upload.wikimedia.org/wikipedia/commons/1/15/IHM_\u05db\u05d9\u05db\u05e8_\u05de\u05d0\u05e0\u05d2\u05e8_3.jpeg", "name": "\u0628\u064a\u062a \u0644\u062d\u0645", "name:ar": "\u0628\u064a\u062a \u0644\u062d\u0645", "name:arc": "\u0712\u071d\u072c \u0720\u071a\u0721", "name:be": "\u0412\u0456\u0444\u043b\u0435\u0435\u043c", "name:be-tarask": "\u0411\u044d\u0442\u043b\u0435\u0435\u043c", "name:bg": "\u0412\u0438\u0442\u043b\u0435\u0435\u043c", "name:br": "Betleem", "name:chr": "\u13a6\u13da\u13f1", "name:cs": "Betl\u00e9m", "name:de": "Bethlehem", "name:en": "Bethlehem", "name:es": "Bel\u00e9n", "name:eu": "Betleem", "name:fa": "\u0628\u06cc\u062a\u200c\u0644\u062d\u0645", "name:fi": "Betlehem", "name:fr": "Bethl\u00e9em", "name:fy": "Betlehem", "name:grc": "\u0392\u03b7\u03b8\u03bb\u03ad\u03b5\u03bc", "name:he": "\u05d1\u05d9\u05ea \u05dc\u05d7\u05dd", "name:hi": "\u092c\u0947\u0925\u0932\u0939\u092e", "name:hr": "Betlehem", "name:hu": "Betlehem", "name:it": "Betlemme", "name:ja": "\u30d9\u30c4\u30ec\u30d8\u30e0", "name:ka": "\u10d1\u10d4\u10d7\u10da\u10d4\u10db\u10d8", "name:kn": "\u0cac\u0cc7\u0ca5\u0cb2\u0cb9\u0cae\u0ccd", "name:ko": "\ubca0\ub4e4\ub808\ud5f4", "name:ml": "\u0d2c\u0d46\u0d24\u0d4d\u200c\u0d32\u0d39\u0d47\u0d02", "name:nl": "Bethlehem", "name:pl": "Betlejem", "name:pnb": "\u0628\u06cc\u062a \u0627\u0644\u0644\u062d\u0645", "name:ps": "\u0628\u06cc\u062a \u0644\u062d\u0645", "name:pt": "Bel\u00e9m", "name:ro": "Betleem", "name:ru": "\u0412\u0438\u0444\u043b\u0435\u0435\u043c", "name:sk": "Betlehem", "name:sr": "\u0412\u0438\u0442\u043b\u0435\u0458\u0435\u043c", "name:syc": "\u0712\u071d\u072c \u0720\u071a\u0721", "name:te": "\u0c2c\u0c46\u0c24\u0c4d\u0c32\u0c46\u0c39\u0c46\u0c02", "name:tr": "Beyt\u00fclahm", "name:tzl": "Ve\u00felac'heim", "name:ug": "\u0628\u06d0\u062a\u0644\u06d0\u062e\u06d0\u0645", "name:uk": "\u0412\u0438\u0444\u043b\u0435\u0454\u043c", "name:ur": "\u0628\u06cc\u062a \u0644\u062d\u0645", "name:zh": "\u4f2f\u5229\u6046", "place": "city", "population": "27000", "source:name:br": "ofis publik ar brezhoneg", "website": "https://www.bethlehem-city.org/", "wikidata": "Q5776", "wikipedia": "ar:\u0628\u064a\u062a \u0644\u062d\u0645", "wikipedia:ar": "\u0628\u064a\u062a \u0644\u062d\u0645"}}, {"type": "node", "id": 431731082, "lat": 31.8651111, "lon": 35.1411899}, {"type": "node", "id": 432269238, "lat": 31.9229273, "lon": 35.2013635}, {"type": "node", "id": 432272609, "lat": 31.7525777, "lon": 35.2590522}, {"type": "node", "id": 432286442, "lat": 31.752611, "lon": 35.2599418}, {"type": "node", "id": 432287759, "lat": 31.9324487, "lon": 35.0433428, "tags": {"alt_name:ar": "\u0643\u0631\u064a\u0627\u062a \u0633\u064a\u0641\u0631", "alt_name:cs": "Kirjat Sefer", "alt_name:en": "Kiryat Sefer", "alt_name:he": "\u05e7\u05e8\u05d9\u05d9\u05ea \u05e1\u05e4\u05e8", "name": "\u05de\u05d5\u05d3\u05d9\u05e2\u05d9\u05df \u05e2\u05d9\u05dc\u05d9\u05ea", "name:ar": "\u0645\u0648\u062f\u064a\u0639\u064a\u0646 \u0639\u064a\u0644\u064a\u062a", "name:cs": "Modi'in Ilit", "name:en": "Modi'in Illit", "name:fi": "Modiin Ilit", "name:fr": "Modiin Illit", "name:he": "\u05de\u05d5\u05d3\u05d9\u05e2\u05d9\u05df \u05e2\u05d9\u05dc\u05d9\u05ea", "name:ml": "\u0d2e\u0d4a\u0d26\u0d40\u0d7b \u0d07\u0d32\u0d3f\u0d24\u0d4d\u0d24\u0d4d", "name:ru": "\u041c\u043e\u0434\u0438\u0438\u043d-\u0418\u043b\u0438\u0442", "place": "town", "population": "47700", "wikidata": "Q168140", "wikipedia": "en:Modi'in Illit", "wikipedia:en": "Modi'in Illit"}}, {"type": "node", "id": 432288078, "lat": 31.9007401, "lon": 35.2117585, "tags": {"alt_name:he": "\u05d1\u05d9\u05e8\u05d4", "name": "\u0627\u0644\u0628\u064a\u0631\u0629", "name:ar": "\u0627\u0644\u0628\u064a\u0631\u0629", "name:de": "Al-Bira", "name:en": "Albireh", "name:es": "Al Bireh", "name:fa": "\u0627\u0644\u0628\u06cc\u0631\u0647", "name:fr": "Al-Bireh", "name:he": "\u05d0\u05dc \u05d1\u05d9\u05e8\u05d4", "name:ml": "\u0d05\u0d7d-\u0d2c\u0d40\u0d30\u0d47", "name:pnb": "\u0627\u0644\u0628\u06cc\u0631\u06c1", "name:ru": "\u044d\u043b\u044c-\u0411\u0438\u0440\u0430", "name:uk": "\u0410\u043b\u044c-\u0411\u0456\u0440\u0430", "name:ur": "\u0627\u0644\u0628\u06cc\u0631\u06c1", "place": "city", "wikidata": "Q311326", "wikipedia": "ar:\u0627\u0644\u0628\u064a\u0631\u0629 (\u0631\u0627\u0645 \u0627\u0644\u0644\u0647)", "wikipedia:ar": "\u0627\u0644\u0628\u064a\u0631\u0629 (\u0631\u0627\u0645 \u0627\u0644\u0644\u0647)"}}, {"type": "node", "id": 432335269, "lat": 31.855991, "lon": 35.4598851, "tags": {"alt_name:ml": "\u0d2f\u0d46\u0d30\u0d40\u0d39\u0d4b", "name": "\u0623\u0631\u064a\u062d\u0627", "name:ar": "\u0623\u0631\u064a\u062d\u0627", "name:azb": "\u0627\u0631\u06cc\u062d\u0627", "name:cs": "Jericho", "name:de": "Jericho", "name:en": "Jericho", "name:es": "Jeric\u00f3", "name:et": "Jeeriko", "name:eu": "Jeriko", "name:fa": "\u0627\u0631\u06cc\u062d\u0627", "name:fi": "Jeriko", "name:fr": "J\u00e9richo", "name:he": "\u05d9\u05e8\u05d9\u05d7\u05d5", "name:hi": "\u091c\u0947\u0930\u093f\u0915\u094b", "name:hr": "Jerihon", "name:it": "Gerico", "name:ja": "\u30a8\u30ea\u30b3", "name:ks": "\u0627\u0631\u06cc\u062d\u0627", "name:ku": "Cer\u00eeko", "name:ml": "\u0d05\u0d30\u0d40\u0d39", "name:ota": "\u0627\u0631\u06cc\u062d\u0627", "name:pnb": "\u0627\u0631\u06cc\u062d\u0627", "name:ro": "Ierihon", "name:ru": "\u0418\u0435\u0440\u0438\u0445\u043e\u043d", "name:sk": "Jericho", "name:sv": "Jeriko", "name:uk": "\u0404\u0440\u0438\u0445\u043e\u043d", "name:ur": "\u0627\u0631\u06cc\u062d\u0627", "name:zh": "\u8036\u5229\u54e5", "place": "town", "population": "22006", "website": "https://jericho-city.org/", "wikidata": "Q5687", "wikipedia": "ar:\u0623\u0631\u064a\u062d\u0627", "wikipedia:ar": "\u0623\u0631\u064a\u062d\u0627"}}, {"type": "node", "id": 432337229, "lat": 31.8494128, "lon": 35.4665788}, {"type": "node", "id": 432339503, "lat": 31.8764223, "lon": 35.4595226}, {"type": "node", "id": 432339834, "lat": 31.8777165, "lon": 35.4577169}, {"type": "node", "id": 432340371, "lat": 31.8542167, "lon": 35.4467489}, {"type": "node", "id": 432341076, "lat": 31.8726304, "lon": 35.4377633}, {"type": "node", "id": 493164545, "lat": 31.7492431, "lon": 35.1775889}, {"type": "node", "id": 521827632, "lat": 31.6638841, "lon": 35.2335985}, {"type": "node", "id": 521828990, "lat": 31.67351, "lon": 35.2649415}, {"type": "node", "id": 522598100, "lat": 31.7633208, "lon": 35.1383918}, {"type": "node", "id": 561412047, "lat": 31.7942382, "lon": 35.2525201}, {"type": "node", "id": 561412049, "lat": 31.7831293, "lon": 35.258952}, {"type": "node", "id": 561412051, "lat": 31.7711807, "lon": 35.2528691}, {"type": "node", "id": 561412052, "lat": 31.762371, "lon": 35.2492939}, {"type": "node", "id": 561412055, "lat": 31.7542155, "lon": 35.2521263}, {"type": "node", "id": 561412056, "lat": 31.743916, "lon": 35.2443255}, {"type": "node", "id": 561412060, "lat": 31.7292832, "lon": 35.1991388}, {"type": "node", "id": 561412063, "lat": 31.7342926, "lon": 35.1769088}, {"type": "node", "id": 561412072, "lat": 31.7624218, "lon": 35.1587007}, {"type": "node", "id": 561412076, "lat": 31.7689819, "lon": 35.154311}, {"type": "node", "id": 561412090, "lat": 31.81812, "lon": 35.1857946}, {"type": "node", "id": 561412095, "lat": 31.8187573, "lon": 35.2065737}, {"type": "node", "id": 561412099, "lat": 31.808701, "lon": 35.209562}, {"type": "node", "id": 561412100, "lat": 31.8220071, "lon": 35.2178082}, {"type": "node", "id": 561412102, "lat": 31.8495293, "lon": 35.2219632}, {"type": "node", "id": 561412108, "lat": 31.8405711, "lon": 35.2507906}, {"type": "node", "id": 561412115, "lat": 31.8288779, "lon": 35.2484752}, {"type": "node", "id": 561412117, "lat": 31.8255898, "lon": 35.2480642}, {"type": "node", "id": 561412120, "lat": 31.8106567, "lon": 35.2557442}, {"type": "node", "id": 632206546, "lat": 31.8057198, "lon": 35.152731, "tags": {"alt_name:ar": "\u0645\u0641\u0633\u064a\u0631\u062a \u062a\u0633\u064a\u0648\u0646", "name": "\u05de\u05d1\u05e9\u05e8\u05ea \u05e6\u05d9\u05d5\u05df", "name:ar": "\u0645\u0641\u0633\u064a\u0631\u062a \u062a\u0635\u064a\u0648\u0646", "name:en": "Mevaseret Tsiyon", "name:fr": "Mevasseret Tsion", "name:he": "\u05de\u05d1\u05e9\u05e8\u05ea \u05e6\u05d9\u05d5\u05df", "name:ru": "\u041c\u0435\u0432\u0430\u0441\u0435\u0440\u0435\u0442-\u0426\u0438\u043e\u043d", "place": "town", "wikidata": "Q1025294", "wikipedia": "en:Mevaseret Zion", "wikipedia:en": "Mevaseret Zion"}}, {"type": "node", "id": 638647707, "lat": 31.7895831, "lon": 35.1891207}, {"type": "node", "id": 638647710, "lat": 31.7908786, "lon": 35.1878027}, {"type": "node", "id": 638647711, "lat": 31.7928229, "lon": 35.1863704}, {"type": "node", "id": 638647714, "lat": 31.7930645, "lon": 35.1859247}, {"type": "node", "id": 638647717, "lat": 31.7944454, "lon": 35.1924191}, {"type": "node", "id": 638647719, "lat": 31.7943075, "lon": 35.192542}, {"type": "node", "id": 638647721, "lat": 31.7933753, "lon": 35.1927632}, {"type": "node", "id": 638647726, "lat": 31.7931902, "lon": 35.1930398}, {"type": "node", "id": 638647728, "lat": 31.7909433, "lon": 35.1967012}, {"type": "node", "id": 638647730, "lat": 31.7908011, "lon": 35.1982191}, {"type": "node", "id": 638647731, "lat": 31.7912497, "lon": 35.1988784}, {"type": "node", "id": 638647733, "lat": 31.7932847, "lon": 35.1986032}, {"type": "node", "id": 638647735, "lat": 31.7958403, "lon": 35.198056}, {"type": "node", "id": 638647737, "lat": 31.7975364, "lon": 35.1989572}, {"type": "node", "id": 638647739, "lat": 31.7981382, "lon": 35.1998584}, {"type": "node", "id": 638647742, "lat": 31.7981017, "lon": 35.2009957}, {"type": "node", "id": 638647743, "lat": 31.7972446, "lon": 35.2024333}, {"type": "node", "id": 638647745, "lat": 31.7954148, "lon": 35.2028093}, {"type": "node", "id": 638647747, "lat": 31.7957643, "lon": 35.2051643}, {"type": "node", "id": 638647749, "lat": 31.7986123, "lon": 35.2045791}, {"type": "node", "id": 638647751, "lat": 31.7995971, "lon": 35.2049439}, {"type": "node", "id": 638647756, "lat": 31.8062386, "lon": 35.1968178}, {"type": "node", "id": 638647758, "lat": 31.8102876, "lon": 35.1905475}, {"type": "node", "id": 712628038, "lat": 31.7272927, "lon": 35.1873046}, {"type": "node", "id": 712628050, "lat": 31.7317243, "lon": 35.2353}, {"type": "node", "id": 792258551, "lat": 31.6939468, "lon": 35.1043363}, {"type": "node", "id": 792258552, "lat": 31.693621, "lon": 35.1035735}, {"type": "node", "id": 792258553, "lat": 31.6932541, "lon": 35.1022177}, {"type": "node", "id": 792258554, "lat": 31.6934241, "lon": 35.1011209}, {"type": "node", "id": 792258558, "lat": 31.6993982, "lon": 35.0983773}, {"type": "node", "id": 792258559, "lat": 31.7004362, "lon": 35.1009852}, {"type": "node", "id": 792258561, "lat": 31.7021888, "lon": 35.1067997}, {"type": "node", "id": 792258562, "lat": 31.7025598, "lon": 35.1088231}, {"type": "node", "id": 792258564, "lat": 31.7029734, "lon": 35.1103825}, {"type": "node", "id": 792258565, "lat": 31.7040911, "lon": 35.1112232}, {"type": "node", "id": 792258566, "lat": 31.7045886, "lon": 35.1125584}, {"type": "node", "id": 792258567, "lat": 31.705756, "lon": 35.1147047}, {"type": "node", "id": 792258568, "lat": 31.7060681, "lon": 35.1156402}, {"type": "node", "id": 792258569, "lat": 31.7063397, "lon": 35.1164948}, {"type": "node", "id": 792258570, "lat": 31.7078649, "lon": 35.1186743}, {"type": "node", "id": 792258571, "lat": 31.7078754, "lon": 35.1189334}, {"type": "node", "id": 792258572, "lat": 31.707655, "lon": 35.1191255}, {"type": "node", "id": 792258614, "lat": 31.7007629, "lon": 35.1195998}, {"type": "node", "id": 792258616, "lat": 31.7008689, "lon": 35.1162979}, {"type": "node", "id": 792258618, "lat": 31.7003313, "lon": 35.114931}, {"type": "node", "id": 792258621, "lat": 31.6999607, "lon": 35.1134424}, {"type": "node", "id": 792258623, "lat": 31.6991962, "lon": 35.1118615}, {"type": "node", "id": 792258625, "lat": 31.6991898, "lon": 35.1116496}, {"type": "node", "id": 792258627, "lat": 31.6981638, "lon": 35.1086327}, {"type": "node", "id": 792258630, "lat": 31.6978452, "lon": 35.108299}, {"type": "node", "id": 792258634, "lat": 31.6968776, "lon": 35.1075598}, {"type": "node", "id": 792258639, "lat": 31.6959875, "lon": 35.106849}, {"type": "node", "id": 858791532, "lat": 31.8254461, "lon": 35.2543302}, {"type": "node", "id": 858791550, "lat": 31.8196854, "lon": 35.2600188}, {"type": "node", "id": 931248082, "lat": 31.6666406, "lon": 35.2344679}, {"type": "node", "id": 1001993976, "lat": 31.7187442, "lon": 35.22242}, {"type": "node", "id": 1001994493, "lat": 31.7190635, "lon": 35.2237004}, {"type": "node", "id": 1098112636, "lat": 31.7776332, "lon": 35.3046569}, {"type": "node", "id": 1098112637, "lat": 31.7789134, "lon": 35.3063836}, {"type": "node", "id": 1098112662, "lat": 31.7840797, "lon": 35.3091964}, {"type": "node", "id": 1098112709, "lat": 31.7833605, "lon": 35.3146676}, {"type": "node", "id": 1098112791, "lat": 31.7773426, "lon": 35.3155408}, {"type": "node", "id": 1098112799, "lat": 31.776393, "lon": 35.3163944}, {"type": "node", "id": 1098112804, "lat": 31.7765121, "lon": 35.3141265}, {"type": "node", "id": 1098112813, "lat": 31.7783257, "lon": 35.3086519}, {"type": "node", "id": 1098112837, "lat": 31.7734529, "lon": 35.3040115}, {"type": "node", "id": 1098112879, "lat": 31.7728183, "lon": 35.3021109}, {"type": "node", "id": 1098112891, "lat": 31.7698783, "lon": 35.3038833}, {"type": "node", "id": 1098112895, "lat": 31.770644, "lon": 35.3051665}, {"type": "node", "id": 1098112899, "lat": 31.77163, "lon": 35.3084833}, {"type": "node", "id": 1098112911, "lat": 31.7705004, "lon": 35.3096009}, {"type": "node", "id": 1098112920, "lat": 31.7686014, "lon": 35.3100099}, {"type": "node", "id": 1098112976, "lat": 31.768101, "lon": 35.3092414}, {"type": "node", "id": 1098112987, "lat": 31.7650302, "lon": 35.3035718}, {"type": "node", "id": 1098112992, "lat": 31.7631967, "lon": 35.3005017}, {"type": "node", "id": 1098113008, "lat": 31.7632966, "lon": 35.2999857}, {"type": "node", "id": 1098113013, "lat": 31.7665171, "lon": 35.2959865}, {"type": "node", "id": 1098113018, "lat": 31.7652333, "lon": 35.2955508}, {"type": "node", "id": 1098113070, "lat": 31.7771176, "lon": 35.2895099}, {"type": "node", "id": 1098113092, "lat": 31.7653093, "lon": 35.2947221}, {"type": "node", "id": 1204387298, "lat": 31.7292687, "lon": 35.1853218}, {"type": "node", "id": 1204387299, "lat": 31.7303152, "lon": 35.1842889}, {"type": "node", "id": 1204387300, "lat": 31.7301576, "lon": 35.1825236}, {"type": "node", "id": 1204387301, "lat": 31.7303127, "lon": 35.18154}, {"type": "node", "id": 1204387302, "lat": 31.7316769, "lon": 35.181104}, {"type": "node", "id": 1204387303, "lat": 31.7328074, "lon": 35.1793896}, {"type": "node", "id": 1204387304, "lat": 31.7327763, "lon": 35.1790994}, {"type": "node", "id": 1204387305, "lat": 31.7342401, "lon": 35.176383}, {"type": "node", "id": 1204387306, "lat": 31.7347876, "lon": 35.1755849}, {"type": "node", "id": 1204387307, "lat": 31.734978, "lon": 35.1754162}, {"type": "node", "id": 1206304639, "lat": 31.7274971, "lon": 35.1897602}, {"type": "node", "id": 1206304646, "lat": 31.7267725, "lon": 35.1901245}, {"type": "node", "id": 1206304660, "lat": 31.7265092, "lon": 35.189649}, {"type": "node", "id": 1206304673, "lat": 31.7262524, "lon": 35.1893109}, {"type": "node", "id": 1206304690, "lat": 31.7263401, "lon": 35.1888926}, {"type": "node", "id": 1206304698, "lat": 31.7264175, "lon": 35.1884457}, {"type": "node", "id": 1206304709, "lat": 31.7264714, "lon": 35.1881844}, {"type": "node", "id": 1206304716, "lat": 31.7266543, "lon": 35.1880745}, {"type": "node", "id": 1206304723, "lat": 31.7269881, "lon": 35.1879946}, {"type": "node", "id": 1206304731, "lat": 31.7270098, "lon": 35.1876908}, {"type": "node", "id": 1206304748, "lat": 31.7278493, "lon": 35.1865536}, {"type": "node", "id": 1206304756, "lat": 31.7280377, "lon": 35.1858708}, {"type": "node", "id": 1206304768, "lat": 31.7284114, "lon": 35.185922}, {"type": "node", "id": 1206304772, "lat": 31.7287805, "lon": 35.185653}, {"type": "node", "id": 1206304784, "lat": 31.7290281, "lon": 35.1854996}, {"type": "node", "id": 1206304801, "lat": 31.7302219, "lon": 35.1845151}, {"type": "node", "id": 1206304817, "lat": 31.7309711, "lon": 35.1828245}, {"type": "node", "id": 1206376124, "lat": 31.728766, "lon": 35.1970716}, {"type": "node", "id": 1206376131, "lat": 31.7306141, "lon": 35.1951456}, {"type": "node", "id": 1206376135, "lat": 31.730533, "lon": 35.194781}, {"type": "node", "id": 1206376150, "lat": 31.7305897, "lon": 35.1942115}, {"type": "node", "id": 1206376152, "lat": 31.7304175, "lon": 35.1938313}, {"type": "node", "id": 1206376155, "lat": 31.7301088, "lon": 35.1937036}, {"type": "node", "id": 1206376159, "lat": 31.728177, "lon": 35.1942548}, {"type": "node", "id": 1206376165, "lat": 31.7280492, "lon": 35.194276}, {"type": "node", "id": 1206376171, "lat": 31.7279589, "lon": 35.1940896}, {"type": "node", "id": 1206376176, "lat": 31.727767, "lon": 35.1933644}, {"type": "node", "id": 1206376182, "lat": 31.7276447, "lon": 35.1928395}, {"type": "node", "id": 1206376184, "lat": 31.7272658, "lon": 35.1930372}, {"type": "node", "id": 1206376189, "lat": 31.7270965, "lon": 35.1929581}, {"type": "node", "id": 1206376195, "lat": 31.7269275, "lon": 35.1924273}, {"type": "node", "id": 1206376201, "lat": 31.7275607, "lon": 35.1923137}, {"type": "node", "id": 1206376207, "lat": 31.7275399, "lon": 35.1917555}, {"type": "node", "id": 1221054402, "lat": 31.7313282, "lon": 35.2052435}, {"type": "node", "id": 1221054418, "lat": 31.7317634, "lon": 35.2022577}, {"type": "node", "id": 1221054421, "lat": 31.7314376, "lon": 35.2006557}, {"type": "node", "id": 1221054424, "lat": 31.7299339, "lon": 35.2001583}, {"type": "node", "id": 1221054426, "lat": 31.7283374, "lon": 35.1978441}, {"type": "node", "id": 1221054427, "lat": 31.7279025, "lon": 35.1961022}, {"type": "node", "id": 1263944197, "lat": 31.7549147, "lon": 35.2690636}, {"type": "node", "id": 1264256365, "lat": 31.6697005, "lon": 35.2708285}, {"type": "node", "id": 1265849070, "lat": 31.6809173, "lon": 35.2548907}, {"type": "node", "id": 1341370095, "lat": 31.8056977, "lon": 35.2067496}, {"type": "node", "id": 1341378421, "lat": 31.8095487, "lon": 35.203602}, {"type": "node", "id": 1341379727, "lat": 31.7325349, "lon": 35.1911627}, {"type": "node", "id": 1341379731, "lat": 31.7340885, "lon": 35.1917962}, {"type": "node", "id": 1341381723, "lat": 31.7831873, "lon": 35.1883505}, {"type": "node", "id": 1341381724, "lat": 31.7829463, "lon": 35.1880967}, {"type": "node", "id": 1341381725, "lat": 31.7827074, "lon": 35.1878856}, {"type": "node", "id": 1341381731, "lat": 31.7824417, "lon": 35.1877154}, {"type": "node", "id": 1341381739, "lat": 31.7820869, "lon": 35.1875381}, {"type": "node", "id": 1341381748, "lat": 31.7819646, "lon": 35.1873846}, {"type": "node", "id": 1341381751, "lat": 31.7818108, "lon": 35.1871051}, {"type": "node", "id": 1341381752, "lat": 31.7816662, "lon": 35.1867795}, {"type": "node", "id": 1341381756, "lat": 31.7815329, "lon": 35.1864706}, {"type": "node", "id": 1341381758, "lat": 31.7813937, "lon": 35.1861959}, {"type": "node", "id": 1341381760, "lat": 31.7813052, "lon": 35.1860322}, {"type": "node", "id": 1341381765, "lat": 31.7809148, "lon": 35.1854977}, {"type": "node", "id": 1341381766, "lat": 31.7804327, "lon": 35.1848849}, {"type": "node", "id": 1341381768, "lat": 31.7803342, "lon": 35.1842059}, {"type": "node", "id": 1341381771, "lat": 31.7801805, "lon": 35.1837038}, {"type": "node", "id": 1341381777, "lat": 31.7799506, "lon": 35.1834818}, {"type": "node", "id": 1341381778, "lat": 31.779973, "lon": 35.1835047}, {"type": "node", "id": 1341381779, "lat": 31.7798636, "lon": 35.1833928}, {"type": "node", "id": 1341381781, "lat": 31.7799042, "lon": 35.183169}, {"type": "node", "id": 1341381784, "lat": 31.7798634, "lon": 35.1830355}, {"type": "node", "id": 1341381785, "lat": 31.7798155, "lon": 35.1829723}, {"type": "node", "id": 1341381786, "lat": 31.779772, "lon": 35.182917}, {"type": "node", "id": 1341381787, "lat": 31.7796958, "lon": 35.1828254}, {"type": "node", "id": 1341381788, "lat": 31.7796832, "lon": 35.1828121}, {"type": "node", "id": 1341381789, "lat": 31.7796655, "lon": 35.1827961}, {"type": "node", "id": 1341381790, "lat": 31.7795448, "lon": 35.1827004}, {"type": "node", "id": 1341381791, "lat": 31.7795328, "lon": 35.1826929}, {"type": "node", "id": 1341381792, "lat": 31.7794096, "lon": 35.1826337}, {"type": "node", "id": 1341381793, "lat": 31.7792794, "lon": 35.1825766}, {"type": "node", "id": 1341381794, "lat": 31.7792372, "lon": 35.1825608}, {"type": "node", "id": 1341381795, "lat": 31.7791025, "lon": 35.1825181}, {"type": "node", "id": 1341381796, "lat": 31.7790993, "lon": 35.1825172}, {"type": "node", "id": 1341381798, "lat": 31.7790436, "lon": 35.1824139}, {"type": "node", "id": 1341381799, "lat": 31.7790405, "lon": 35.1824078}, {"type": "node", "id": 1341381800, "lat": 31.7789763, "lon": 35.1822778}, {"type": "node", "id": 1341381801, "lat": 31.7789589, "lon": 35.1822443}, {"type": "node", "id": 1341381802, "lat": 31.7789475, "lon": 35.1822238}, {"type": "node", "id": 1341381804, "lat": 31.7789083, "lon": 35.182157}, {"type": "node", "id": 1341381806, "lat": 31.7788928, "lon": 35.1819445}, {"type": "node", "id": 1341381812, "lat": 31.7789293, "lon": 35.1818054}, {"type": "node", "id": 1341381813, "lat": 31.7789191, "lon": 35.1816997}, {"type": "node", "id": 1341381814, "lat": 31.7788013, "lon": 35.1816457}, {"type": "node", "id": 1341381816, "lat": 31.7785071, "lon": 35.1816092}, {"type": "node", "id": 1341381817, "lat": 31.7783261, "lon": 35.181591}, {"type": "node", "id": 1341381818, "lat": 31.7782243, "lon": 35.1815829}, {"type": "node", "id": 1341381819, "lat": 31.7781235, "lon": 35.1815767}, {"type": "node", "id": 1341381820, "lat": 31.7780407, "lon": 35.1816596}, {"type": "node", "id": 1341381823, "lat": 31.7780254, "lon": 35.181931}, {"type": "node", "id": 1341381824, "lat": 31.7780045, "lon": 35.1819817}, {"type": "node", "id": 1341381826, "lat": 31.7777645, "lon": 35.1820736}, {"type": "node", "id": 1341381827, "lat": 31.7777608, "lon": 35.1820749}, {"type": "node", "id": 1341381830, "lat": 31.7776698, "lon": 35.1821034}, {"type": "node", "id": 1341381833, "lat": 31.777527, "lon": 35.1819513}, {"type": "node", "id": 1341381841, "lat": 31.7772481, "lon": 35.1820726}, {"type": "node", "id": 1341381844, "lat": 31.7770918, "lon": 35.1820585}, {"type": "node", "id": 1341381847, "lat": 31.7770859, "lon": 35.1819208}, {"type": "node", "id": 1341381850, "lat": 31.7768695, "lon": 35.1819391}, {"type": "node", "id": 1341381851, "lat": 31.776866, "lon": 35.1819392}, {"type": "node", "id": 1341381855, "lat": 31.7766334, "lon": 35.1819281}, {"type": "node", "id": 1341381858, "lat": 31.7766253, "lon": 35.1818818}, {"type": "node", "id": 1341381859, "lat": 31.7766212, "lon": 35.1818604}, {"type": "node", "id": 1341381860, "lat": 31.7765136, "lon": 35.1813803}, {"type": "node", "id": 1341381861, "lat": 31.7764874, "lon": 35.1812704}, {"type": "node", "id": 1341381862, "lat": 31.7764779, "lon": 35.1812342}, {"type": "node", "id": 1341381863, "lat": 31.7763854, "lon": 35.1809022}, {"type": "node", "id": 1341381864, "lat": 31.7763757, "lon": 35.1808621}, {"type": "node", "id": 1341381866, "lat": 31.7763455, "lon": 35.1807048}, {"type": "node", "id": 1341381867, "lat": 31.7763343, "lon": 35.1806311}, {"type": "node", "id": 1341381868, "lat": 31.7763698, "lon": 35.1804541}, {"type": "node", "id": 1341381871, "lat": 31.7771752, "lon": 35.1799838}, {"type": "node", "id": 1341381873, "lat": 31.777298, "lon": 35.1798663}, {"type": "node", "id": 1341381877, "lat": 31.7773865, "lon": 35.1797046}, {"type": "node", "id": 1341381879, "lat": 31.7774242, "lon": 35.1795075}, {"type": "node", "id": 1341381883, "lat": 31.7774039, "lon": 35.179291}, {"type": "node", "id": 1341381888, "lat": 31.7772244, "lon": 35.1790959}, {"type": "node", "id": 1341381889, "lat": 31.7771555, "lon": 35.1790174}, {"type": "node", "id": 1341381890, "lat": 31.7771163, "lon": 35.17897}, {"type": "node", "id": 1341381892, "lat": 31.7770917, "lon": 35.1789381}, {"type": "node", "id": 1341381893, "lat": 31.7770473, "lon": 35.178876}, {"type": "node", "id": 1341381896, "lat": 31.7769191, "lon": 35.1786906}, {"type": "node", "id": 1341381897, "lat": 31.7769007, "lon": 35.1786655}, {"type": "node", "id": 1341381898, "lat": 31.7768572, "lon": 35.1786093}, {"type": "node", "id": 1341381899, "lat": 31.7768365, "lon": 35.1786034}, {"type": "node", "id": 1341381903, "lat": 31.7767174, "lon": 35.1785924}, {"type": "node", "id": 1341381904, "lat": 31.7766927, "lon": 35.1785896}, {"type": "node", "id": 1341381905, "lat": 31.7766653, "lon": 35.1785856}, {"type": "node", "id": 1341381906, "lat": 31.7766172, "lon": 35.1785771}, {"type": "node", "id": 1341381907, "lat": 31.7764843, "lon": 35.1785497}, {"type": "node", "id": 1341381908, "lat": 31.7763195, "lon": 35.1785126}, {"type": "node", "id": 1341381909, "lat": 31.7763051, "lon": 35.1785086}, {"type": "node", "id": 1341381915, "lat": 31.7755281, "lon": 35.178231}, {"type": "node", "id": 1341381918, "lat": 31.7755165, "lon": 35.1781397}, {"type": "node", "id": 1341381920, "lat": 31.7754821, "lon": 35.1780641}, {"type": "node", "id": 1341381921, "lat": 31.7754218, "lon": 35.1779947}, {"type": "node", "id": 1341381922, "lat": 31.7753487, "lon": 35.1779501}, {"type": "node", "id": 1341381931, "lat": 31.7752575, "lon": 35.177906}, {"type": "node", "id": 1341381936, "lat": 31.7752445, "lon": 35.1778997}, {"type": "node", "id": 1341381939, "lat": 31.7751722, "lon": 35.177869}, {"type": "node", "id": 1341381950, "lat": 31.7751025, "lon": 35.1778393}, {"type": "node", "id": 1341381960, "lat": 31.7749632, "lon": 35.1778385}, {"type": "node", "id": 1341381973, "lat": 31.7750554, "lon": 35.1775606}, {"type": "node", "id": 1341381977, "lat": 31.775369, "lon": 35.1775585}, {"type": "node", "id": 1341381984, "lat": 31.7755407, "lon": 35.1776166}, {"type": "node", "id": 1341381988, "lat": 31.7756068, "lon": 35.1776406}, {"type": "node", "id": 1341381991, "lat": 31.7757104, "lon": 35.17768}, {"type": "node", "id": 1341381998, "lat": 31.7758835, "lon": 35.1776302}, {"type": "node", "id": 1341382007, "lat": 31.775614, "lon": 35.1772669}, {"type": "node", "id": 1341382015, "lat": 31.7755405, "lon": 35.1769896}, {"type": "node", "id": 1341382021, "lat": 31.7754667, "lon": 35.1759626}, {"type": "node", "id": 1341382022, "lat": 31.7754507, "lon": 35.1759296}, {"type": "node", "id": 1341382037, "lat": 31.7754538, "lon": 35.1758023}, {"type": "node", "id": 1341382040, "lat": 31.7753988, "lon": 35.175605}, {"type": "node", "id": 1341382044, "lat": 31.7748604, "lon": 35.1747785}, {"type": "node", "id": 1341382048, "lat": 31.77482, "lon": 35.1744555}, {"type": "node", "id": 1341382052, "lat": 31.7747991, "lon": 35.1742629}, {"type": "node", "id": 1341382057, "lat": 31.7747742, "lon": 35.1739863}, {"type": "node", "id": 1341382062, "lat": 31.7747514, "lon": 35.1736814}, {"type": "node", "id": 1341382064, "lat": 31.7747365, "lon": 35.1734444}, {"type": "node", "id": 1341382075, "lat": 31.7749102, "lon": 35.1731588}, {"type": "node", "id": 1341382079, "lat": 31.7749028, "lon": 35.1730294}, {"type": "node", "id": 1341382089, "lat": 31.7745961, "lon": 35.172252}, {"type": "node", "id": 1341382097, "lat": 31.7745799, "lon": 35.1719606}, {"type": "node", "id": 1341382106, "lat": 31.7747182, "lon": 35.1717799}, {"type": "node", "id": 1341382119, "lat": 31.7747197, "lon": 35.171295}, {"type": "node", "id": 1341382128, "lat": 31.7748074, "lon": 35.1709159}, {"type": "node", "id": 1341382135, "lat": 31.7746962, "lon": 35.1708796}, {"type": "node", "id": 1341382145, "lat": 31.7746967, "lon": 35.1703045}, {"type": "node", "id": 1341382147, "lat": 31.7747686, "lon": 35.1700158}, {"type": "node", "id": 1341382148, "lat": 31.7747679, "lon": 35.1699298}, {"type": "node", "id": 1341382149, "lat": 31.7747667, "lon": 35.1698834}, {"type": "node", "id": 1341382150, "lat": 31.7747644, "lon": 35.1698351}, {"type": "node", "id": 1341382154, "lat": 31.7747372, "lon": 35.1694572}, {"type": "node", "id": 1341382161, "lat": 31.7746938, "lon": 35.1693344}, {"type": "node", "id": 1341382166, "lat": 31.7746203, "lon": 35.1692117}, {"type": "node", "id": 1341382168, "lat": 31.7745385, "lon": 35.1691415}, {"type": "node", "id": 1341382169, "lat": 31.774408, "lon": 35.1691669}, {"type": "node", "id": 1341382171, "lat": 31.7743013, "lon": 35.1692205}, {"type": "node", "id": 1341382176, "lat": 31.7741611, "lon": 35.1695725}, {"type": "node", "id": 1341382179, "lat": 31.774, "lon": 35.169851}, {"type": "node", "id": 1341382181, "lat": 31.774024, "lon": 35.1700051}, {"type": "node", "id": 1341382182, "lat": 31.7738761, "lon": 35.1702548}, {"type": "node", "id": 1341382184, "lat": 31.7736819, "lon": 35.1710099}, {"type": "node", "id": 1341382185, "lat": 31.7736712, "lon": 35.1710185}, {"type": "node", "id": 1341382190, "lat": 31.7735649, "lon": 35.1711572}, {"type": "node", "id": 1341382195, "lat": 31.7735644, "lon": 35.1712132}, {"type": "node", "id": 1341382205, "lat": 31.7735822, "lon": 35.1714119}, {"type": "node", "id": 1341382209, "lat": 31.7735689, "lon": 35.1714509}, {"type": "node", "id": 1341382211, "lat": 31.7735627, "lon": 35.1714672}, {"type": "node", "id": 1341382212, "lat": 31.7735458, "lon": 35.1715086}, {"type": "node", "id": 1341382220, "lat": 31.7732563, "lon": 35.1721705}, {"type": "node", "id": 1341382236, "lat": 31.7735533, "lon": 35.1723644}, {"type": "node", "id": 1341382241, "lat": 31.7737037, "lon": 35.1728166}, {"type": "node", "id": 1341382243, "lat": 31.7735262, "lon": 35.1731258}, {"type": "node", "id": 1341382245, "lat": 31.7734189, "lon": 35.1731392}, {"type": "node", "id": 1341382246, "lat": 31.7731571, "lon": 35.173632}, {"type": "node", "id": 1341382247, "lat": 31.7731402, "lon": 35.1737194}, {"type": "node", "id": 1341382249, "lat": 31.7731597, "lon": 35.1737608}, {"type": "node", "id": 1341382250, "lat": 31.7730627, "lon": 35.1739245}, {"type": "node", "id": 1341382251, "lat": 31.7730607, "lon": 35.1739284}, {"type": "node", "id": 1341382257, "lat": 31.7728463, "lon": 35.1744061}, {"type": "node", "id": 1341382401, "lat": 31.7727824, "lon": 35.1747587}, {"type": "node", "id": 1341382409, "lat": 31.7728142, "lon": 35.1749013}, {"type": "node", "id": 1341382411, "lat": 31.7728212, "lon": 35.1749286}, {"type": "node", "id": 1341382415, "lat": 31.7728235, "lon": 35.1749362}, {"type": "node", "id": 1341382419, "lat": 31.7728322, "lon": 35.1749605}, {"type": "node", "id": 1341382421, "lat": 31.7728615, "lon": 35.1750361}, {"type": "node", "id": 1341382424, "lat": 31.7728684, "lon": 35.1750519}, {"type": "node", "id": 1341382429, "lat": 31.7728699, "lon": 35.1750544}, {"type": "node", "id": 1341382432, "lat": 31.7728967, "lon": 35.175085}, {"type": "node", "id": 1341382436, "lat": 31.7729097, "lon": 35.1750986}, {"type": "node", "id": 1341382439, "lat": 31.7729702, "lon": 35.1751551}, {"type": "node", "id": 1341382461, "lat": 31.7735867, "lon": 35.1756949}, {"type": "node", "id": 1341382472, "lat": 31.7735581, "lon": 35.1758803}, {"type": "node", "id": 1341382483, "lat": 31.7735681, "lon": 35.1759555}, {"type": "node", "id": 1341382493, "lat": 31.7735851, "lon": 35.1759808}, {"type": "node", "id": 1341382502, "lat": 31.773607, "lon": 35.1760394}, {"type": "node", "id": 1341382514, "lat": 31.7737852, "lon": 35.1762828}, {"type": "node", "id": 1341382516, "lat": 31.7737632, "lon": 35.176333}, {"type": "node", "id": 1341382521, "lat": 31.7737202, "lon": 35.1763305}, {"type": "node", "id": 1341382579, "lat": 31.7729047, "lon": 35.1756209}, {"type": "node", "id": 1341382581, "lat": 31.772894, "lon": 35.175654}, {"type": "node", "id": 1341382582, "lat": 31.7728801, "lon": 35.1756577}, {"type": "node", "id": 1341382585, "lat": 31.7728576, "lon": 35.175681}, {"type": "node", "id": 1341382593, "lat": 31.772839, "lon": 35.1756979}, {"type": "node", "id": 1341382604, "lat": 31.7728799, "lon": 35.1757344}, {"type": "node", "id": 1341382605, "lat": 31.7730092, "lon": 35.1758499}, {"type": "node", "id": 1341382657, "lat": 31.773872, "lon": 35.1766208}, {"type": "node", "id": 1341382667, "lat": 31.7739797, "lon": 35.1767928}, {"type": "node", "id": 1341382672, "lat": 31.7740345, "lon": 35.17701}, {"type": "node", "id": 1341382679, "lat": 31.7740407, "lon": 35.1771651}, {"type": "node", "id": 1341382691, "lat": 31.7739996, "lon": 35.1773271}, {"type": "node", "id": 1341382714, "lat": 31.7738807, "lon": 35.1774737}, {"type": "node", "id": 1341382715, "lat": 31.7738354, "lon": 35.1774962}, {"type": "node", "id": 1341382716, "lat": 31.773624, "lon": 35.1775968}, {"type": "node", "id": 1341382720, "lat": 31.7734085, "lon": 35.1776933}, {"type": "node", "id": 1341382724, "lat": 31.773242, "lon": 35.17776}, {"type": "node", "id": 1341382728, "lat": 31.7731038, "lon": 35.1778073}, {"type": "node", "id": 1341382729, "lat": 31.7729208, "lon": 35.1778603}, {"type": "node", "id": 1341382730, "lat": 31.7727567, "lon": 35.1779027}, {"type": "node", "id": 1341382736, "lat": 31.7727189, "lon": 35.1779148}, {"type": "node", "id": 1341382740, "lat": 31.7725817, "lon": 35.1779687}, {"type": "node", "id": 1341382743, "lat": 31.7724364, "lon": 35.1780309}, {"type": "node", "id": 1341382744, "lat": 31.7723415, "lon": 35.1780746}, {"type": "node", "id": 1341382750, "lat": 31.772293, "lon": 35.178274}, {"type": "node", "id": 1341382770, "lat": 31.7721219, "lon": 35.1785437}, {"type": "node", "id": 1341382797, "lat": 31.7720797, "lon": 35.1786678}, {"type": "node", "id": 1341382801, "lat": 31.7720778, "lon": 35.178675}, {"type": "node", "id": 1341382803, "lat": 31.7720715, "lon": 35.1787084}, {"type": "node", "id": 1341382808, "lat": 31.7720697, "lon": 35.1787186}, {"type": "node", "id": 1341382809, "lat": 31.7720667, "lon": 35.1787391}, {"type": "node", "id": 1341382811, "lat": 31.7720635, "lon": 35.178764}, {"type": "node", "id": 1341382821, "lat": 31.7720625, "lon": 35.1787728}, {"type": "node", "id": 1341382825, "lat": 31.7720607, "lon": 35.1788982}, {"type": "node", "id": 1341382828, "lat": 31.7720607, "lon": 35.1789572}, {"type": "node", "id": 1341382829, "lat": 31.7720612, "lon": 35.1789748}, {"type": "node", "id": 1341382832, "lat": 31.7720902, "lon": 35.1794754}, {"type": "node", "id": 1341382835, "lat": 31.7720908, "lon": 35.179496}, {"type": "node", "id": 1341382839, "lat": 31.7720908, "lon": 35.1795256}, {"type": "node", "id": 1341382872, "lat": 31.7720157, "lon": 35.1810678}, {"type": "node", "id": 1341382874, "lat": 31.7719257, "lon": 35.1810245}, {"type": "node", "id": 1341382875, "lat": 31.7718909, "lon": 35.1810064}, {"type": "node", "id": 1341382877, "lat": 31.7718154, "lon": 35.1809635}, {"type": "node", "id": 1341382880, "lat": 31.7717076, "lon": 35.1808989}, {"type": "node", "id": 1341382885, "lat": 31.7716003, "lon": 35.1808323}, {"type": "node", "id": 1341382888, "lat": 31.7715958, "lon": 35.1808271}, {"type": "node", "id": 1341382890, "lat": 31.7715129, "lon": 35.1807329}, {"type": "node", "id": 1341382891, "lat": 31.7715001, "lon": 35.1807192}, {"type": "node", "id": 1341382892, "lat": 31.7714697, "lon": 35.1807586}, {"type": "node", "id": 1341382896, "lat": 31.7714353, "lon": 35.1808045}, {"type": "node", "id": 1341382899, "lat": 31.7713412, "lon": 35.1808161}, {"type": "node", "id": 1341382903, "lat": 31.7712274, "lon": 35.1807061}, {"type": "node", "id": 1341382906, "lat": 31.7711234, "lon": 35.1806887}, {"type": "node", "id": 1341382907, "lat": 31.7710541, "lon": 35.1807467}, {"type": "node", "id": 1341382912, "lat": 31.7710393, "lon": 35.180851}, {"type": "node", "id": 1341382916, "lat": 31.7708561, "lon": 35.1807931}, {"type": "node", "id": 1341382935, "lat": 31.7706275, "lon": 35.1807043}, {"type": "node", "id": 1341382938, "lat": 31.7703555, "lon": 35.1805351}, {"type": "node", "id": 1341382950, "lat": 31.7701599, "lon": 35.1803731}, {"type": "node", "id": 1341382981, "lat": 31.7700302, "lon": 35.1802138}, {"type": "node", "id": 1341382982, "lat": 31.7698241, "lon": 35.1797186}, {"type": "node", "id": 1341382983, "lat": 31.769764, "lon": 35.1793116}, {"type": "node", "id": 1341382987, "lat": 31.7697224, "lon": 35.178816}, {"type": "node", "id": 1341382995, "lat": 31.769759, "lon": 35.1787138}, {"type": "node", "id": 1341383005, "lat": 31.769848, "lon": 35.1785333}, {"type": "node", "id": 1341383023, "lat": 31.7702176, "lon": 35.1777844}, {"type": "node", "id": 1341383026, "lat": 31.770318, "lon": 35.1772653}, {"type": "node", "id": 1341383038, "lat": 31.7703918, "lon": 35.1766587}, {"type": "node", "id": 1341383068, "lat": 31.770431, "lon": 35.1759326}, {"type": "node", "id": 1341383074, "lat": 31.7703245, "lon": 35.1747781}, {"type": "node", "id": 1341383095, "lat": 31.7702843, "lon": 35.1745341}, {"type": "node", "id": 1341383097, "lat": 31.7702102, "lon": 35.1741333}, {"type": "node", "id": 1341383101, "lat": 31.7701307, "lon": 35.1737619}, {"type": "node", "id": 1341383105, "lat": 31.7700378, "lon": 35.1733814}, {"type": "node", "id": 1341383120, "lat": 31.7698643, "lon": 35.172834}, {"type": "node", "id": 1341383139, "lat": 31.7698426, "lon": 35.1725356}, {"type": "node", "id": 1341383161, "lat": 31.7698959, "lon": 35.1720165}, {"type": "node", "id": 1341383180, "lat": 31.7700098, "lon": 35.1716276}, {"type": "node", "id": 1341383185, "lat": 31.7701092, "lon": 35.1711377}, {"type": "node", "id": 1341383196, "lat": 31.7701408, "lon": 35.1706736}, {"type": "node", "id": 1341383210, "lat": 31.7700803, "lon": 35.1701003}, {"type": "node", "id": 1341383218, "lat": 31.7699722, "lon": 35.1695891}, {"type": "node", "id": 1341383223, "lat": 31.7699072, "lon": 35.1691099}, {"type": "node", "id": 1341383244, "lat": 31.7698338, "lon": 35.1683514}, {"type": "node", "id": 1341383254, "lat": 31.76961, "lon": 35.1673418}, {"type": "node", "id": 1341383279, "lat": 31.7697635, "lon": 35.1672732}, {"type": "node", "id": 1341383281, "lat": 31.7698067, "lon": 35.167254}, {"type": "node", "id": 1341383282, "lat": 31.7699029, "lon": 35.1672075}, {"type": "node", "id": 1341383284, "lat": 31.7699226, "lon": 35.1671974}, {"type": "node", "id": 1341383291, "lat": 31.7699232, "lon": 35.1670402}, {"type": "node", "id": 1341383297, "lat": 31.769899, "lon": 35.1669534}, {"type": "node", "id": 1341383298, "lat": 31.769871, "lon": 35.1668573}, {"type": "node", "id": 1341383306, "lat": 31.7697152, "lon": 35.1663579}, {"type": "node", "id": 1341383320, "lat": 31.7696597, "lon": 35.165788}, {"type": "node", "id": 1341383326, "lat": 31.7693494, "lon": 35.1650775}, {"type": "node", "id": 1341383328, "lat": 31.7694114, "lon": 35.1648326}, {"type": "node", "id": 1341383332, "lat": 31.7695209, "lon": 35.1649982}, {"type": "node", "id": 1341383336, "lat": 31.7695365, "lon": 35.165021}, {"type": "node", "id": 1341383341, "lat": 31.7696917, "lon": 35.1652394}, {"type": "node", "id": 1341383365, "lat": 31.7702589, "lon": 35.1662537}, {"type": "node", "id": 1341383369, "lat": 31.7702607, "lon": 35.1662572}, {"type": "node", "id": 1341383376, "lat": 31.7702624, "lon": 35.1662608}, {"type": "node", "id": 1341383380, "lat": 31.7702741, "lon": 35.1662887}, {"type": "node", "id": 1341383384, "lat": 31.770489, "lon": 35.1668278}, {"type": "node", "id": 1341383389, "lat": 31.7707481, "lon": 35.1666868}, {"type": "node", "id": 1341383392, "lat": 31.7708213, "lon": 35.1665976}, {"type": "node", "id": 1341383399, "lat": 31.7707848, "lon": 35.1662123}, {"type": "node", "id": 1341383400, "lat": 31.7707786, "lon": 35.1661644}, {"type": "node", "id": 1341383401, "lat": 31.7707567, "lon": 35.1660287}, {"type": "node", "id": 1341383405, "lat": 31.7707285, "lon": 35.1658686}, {"type": "node", "id": 1341383412, "lat": 31.7706267, "lon": 35.1656443}, {"type": "node", "id": 1341383417, "lat": 31.7704298, "lon": 35.1655951}, {"type": "node", "id": 1341383428, "lat": 31.7703973, "lon": 35.1653639}, {"type": "node", "id": 1341383431, "lat": 31.7703836, "lon": 35.1652506}, {"type": "node", "id": 1341383435, "lat": 31.7703743, "lon": 35.1651603}, {"type": "node", "id": 1341383447, "lat": 31.7702895, "lon": 35.1641458}, {"type": "node", "id": 1341383451, "lat": 31.7702752, "lon": 35.164106}, {"type": "node", "id": 1341383458, "lat": 31.7703785, "lon": 35.1640549}, {"type": "node", "id": 1341383462, "lat": 31.7704585, "lon": 35.1640186}, {"type": "node", "id": 1341383470, "lat": 31.7704811, "lon": 35.1639514}, {"type": "node", "id": 1341383483, "lat": 31.7704918, "lon": 35.1638558}, {"type": "node", "id": 1341383486, "lat": 31.7704994, "lon": 35.1638038}, {"type": "node", "id": 1341383487, "lat": 31.7705033, "lon": 35.1637808}, {"type": "node", "id": 1341383488, "lat": 31.7705046, "lon": 35.1637748}, {"type": "node", "id": 1341383491, "lat": 31.7705462, "lon": 35.163626}, {"type": "node", "id": 1341383499, "lat": 31.7706474, "lon": 35.1637305}, {"type": "node", "id": 1341383502, "lat": 31.7707897, "lon": 35.1635416}, {"type": "node", "id": 1341383503, "lat": 31.770863, "lon": 35.1634409}, {"type": "node", "id": 1341383504, "lat": 31.7709283, "lon": 35.1633469}, {"type": "node", "id": 1341383507, "lat": 31.7710282, "lon": 35.163196}, {"type": "node", "id": 1341383510, "lat": 31.7710664, "lon": 35.1631359}, {"type": "node", "id": 1341383518, "lat": 31.7709658, "lon": 35.1629901}, {"type": "node", "id": 1341383526, "lat": 31.7712166, "lon": 35.162752}, {"type": "node", "id": 1341383529, "lat": 31.7712823, "lon": 35.1626927}, {"type": "node", "id": 1341383534, "lat": 31.7713846, "lon": 35.1626049}, {"type": "node", "id": 1341383542, "lat": 31.771455, "lon": 35.1625469}, {"type": "node", "id": 1341383545, "lat": 31.7715154, "lon": 35.162499}, {"type": "node", "id": 1341383553, "lat": 31.7716043, "lon": 35.162753}, {"type": "node", "id": 1341383564, "lat": 31.7716877, "lon": 35.1628423}, {"type": "node", "id": 1341383575, "lat": 31.7721077, "lon": 35.1627077}, {"type": "node", "id": 1341383578, "lat": 31.7721654, "lon": 35.1627813}, {"type": "node", "id": 1341383607, "lat": 31.7729743, "lon": 35.1624438}, {"type": "node", "id": 1341383613, "lat": 31.7727936, "lon": 35.1624155}, {"type": "node", "id": 1341383624, "lat": 31.7728505, "lon": 35.1620887}, {"type": "node", "id": 1341383631, "lat": 31.7728396, "lon": 35.1618116}, {"type": "node", "id": 1341383637, "lat": 31.7727957, "lon": 35.1617991}, {"type": "node", "id": 1341383641, "lat": 31.7727897, "lon": 35.1617971}, {"type": "node", "id": 1341383645, "lat": 31.7727778, "lon": 35.1617924}, {"type": "node", "id": 1341383649, "lat": 31.7727464, "lon": 35.1617787}, {"type": "node", "id": 1341383650, "lat": 31.7726843, "lon": 35.1617505}, {"type": "node", "id": 1341383666, "lat": 31.7725584, "lon": 35.1617313}, {"type": "node", "id": 1341383674, "lat": 31.7725512, "lon": 35.1616346}, {"type": "node", "id": 1341383691, "lat": 31.7725288, "lon": 35.1614829}, {"type": "node", "id": 1341383695, "lat": 31.7724863, "lon": 35.1613937}, {"type": "node", "id": 1341383707, "lat": 31.7723655, "lon": 35.1614021}, {"type": "node", "id": 1341383711, "lat": 31.7722433, "lon": 35.1614631}, {"type": "node", "id": 1341383716, "lat": 31.7722392, "lon": 35.1614651}, {"type": "node", "id": 1341383720, "lat": 31.7722349, "lon": 35.1614669}, {"type": "node", "id": 1341383727, "lat": 31.7718869, "lon": 35.1615967}, {"type": "node", "id": 1341383728, "lat": 31.7718663, "lon": 35.1616033}, {"type": "node", "id": 1341383729, "lat": 31.771696, "lon": 35.1616515}, {"type": "node", "id": 1341383730, "lat": 31.7715542, "lon": 35.1616951}, {"type": "node", "id": 1341383734, "lat": 31.7713916, "lon": 35.1617498}, {"type": "node", "id": 1341383742, "lat": 31.7712432, "lon": 35.1618033}, {"type": "node", "id": 1341383750, "lat": 31.7709922, "lon": 35.1618851}, {"type": "node", "id": 1341383751, "lat": 31.771026, "lon": 35.1618395}, {"type": "node", "id": 1341383766, "lat": 31.7711852, "lon": 35.161371}, {"type": "node", "id": 1341383769, "lat": 31.7712012, "lon": 35.1613278}, {"type": "node", "id": 1341383770, "lat": 31.7712704, "lon": 35.1611516}, {"type": "node", "id": 1341383773, "lat": 31.771475, "lon": 35.1609813}, {"type": "node", "id": 1341390119, "lat": 31.7376981, "lon": 35.1875329}, {"type": "node", "id": 1341390914, "lat": 31.7371858, "lon": 35.183079}, {"type": "node", "id": 1341390932, "lat": 31.7381732, "lon": 35.183614}, {"type": "node", "id": 1341390961, "lat": 31.7397688, "lon": 35.1827196}, {"type": "node", "id": 1341393966, "lat": 31.7491682, "lon": 35.1823251}, {"type": "node", "id": 1341393982, "lat": 31.7503363, "lon": 35.1825485}, {"type": "node", "id": 1341394003, "lat": 31.7496288, "lon": 35.1830786}, {"type": "node", "id": 1341394006, "lat": 31.7491878, "lon": 35.1831496}, {"type": "node", "id": 1341394018, "lat": 31.7490234, "lon": 35.1834058}, {"type": "node", "id": 1356135969, "lat": 31.843463, "lon": 35.2491282}, {"type": "node", "id": 1356135973, "lat": 31.8420961, "lon": 35.2510632}, {"type": "node", "id": 1356135976, "lat": 31.8416373, "lon": 35.2515419}, {"type": "node", "id": 1356135981, "lat": 31.8414421, "lon": 35.232389}, {"type": "node", "id": 1356135985, "lat": 31.8424732, "lon": 35.2375139}, {"type": "node", "id": 1356136022, "lat": 31.8429781, "lon": 35.246182}, {"type": "node", "id": 1356136061, "lat": 31.8346733, "lon": 35.2452311}, {"type": "node", "id": 1356136063, "lat": 31.8382087, "lon": 35.2488184}, {"type": "node", "id": 1356136101, "lat": 31.8433199, "lon": 35.2506935}, {"type": "node", "id": 1356136134, "lat": 31.8328018, "lon": 35.2449708}, {"type": "node", "id": 1356136150, "lat": 31.8387054, "lon": 35.2498757}, {"type": "node", "id": 1356136154, "lat": 31.8404383, "lon": 35.2323136}, {"type": "node", "id": 1356136157, "lat": 31.8433449, "lon": 35.2453402}, {"type": "node", "id": 1356136160, "lat": 31.8381403, "lon": 35.2490064}, {"type": "node", "id": 1356136181, "lat": 31.8436448, "lon": 35.2466249}, {"type": "node", "id": 1356136202, "lat": 31.8404437, "lon": 35.2337018}, {"type": "node", "id": 1356136206, "lat": 31.8441496, "lon": 35.2391345}, {"type": "node", "id": 1356136218, "lat": 31.8450213, "lon": 35.2413672}, {"type": "node", "id": 1356136241, "lat": 31.8380906, "lon": 35.2479384}, {"type": "node", "id": 1356136246, "lat": 31.8335746, "lon": 35.2445417}, {"type": "node", "id": 1356136256, "lat": 31.8385757, "lon": 35.248233}, {"type": "node", "id": 1356136262, "lat": 31.8436298, "lon": 35.2498352}, {"type": "node", "id": 1356136269, "lat": 31.8443461, "lon": 35.2453172}, {"type": "node", "id": 1356136274, "lat": 31.8409848, "lon": 35.2508405}, {"type": "node", "id": 1356136277, "lat": 31.8377978, "lon": 35.2471405}, {"type": "node", "id": 1356136279, "lat": 31.8438877, "lon": 35.248183}, {"type": "node", "id": 1356136284, "lat": 31.8419522, "lon": 35.234719}, {"type": "node", "id": 1356136286, "lat": 31.8452676, "lon": 35.2455217}, {"type": "node", "id": 1356136295, "lat": 31.8383617, "lon": 35.2493621}, {"type": "node", "id": 1356136300, "lat": 31.8379616, "lon": 35.2476261}, {"type": "node", "id": 1356136303, "lat": 31.8356591, "lon": 35.2460219}, {"type": "node", "id": 1356136307, "lat": 31.8413582, "lon": 35.2511616}, {"type": "node", "id": 1356136313, "lat": 31.8441128, "lon": 35.2297276}, {"type": "node", "id": 1356136321, "lat": 31.8437961, "lon": 35.2471179}, {"type": "node", "id": 1356136337, "lat": 31.8333205, "lon": 35.2428085}, {"type": "node", "id": 1356136347, "lat": 31.843648, "lon": 35.2503105}, {"type": "node", "id": 1356136364, "lat": 31.8439514, "lon": 35.2390309}, {"type": "node", "id": 1356136377, "lat": 31.8341627, "lon": 35.244738}, {"type": "node", "id": 1356136409, "lat": 31.8430027, "lon": 35.2458374}, {"type": "node", "id": 1356136411, "lat": 31.8432806, "lon": 35.2496868}, {"type": "node", "id": 1356136415, "lat": 31.8435359, "lon": 35.2490566}, {"type": "node", "id": 1356136418, "lat": 31.8432652, "lon": 35.2462979}, {"type": "node", "id": 1356136429, "lat": 31.8436854, "lon": 35.2488664}, {"type": "node", "id": 1356136432, "lat": 31.8379306, "lon": 35.2473408}, {"type": "node", "id": 1356136433, "lat": 31.8438551, "lon": 35.2488426}, {"type": "node", "id": 1357423610, "lat": 31.8597262, "lon": 35.2208415}, {"type": "node", "id": 1357423611, "lat": 31.8562906, "lon": 35.212585}, {"type": "node", "id": 1357423612, "lat": 31.8564042, "lon": 35.2129088}, {"type": "node", "id": 1357423618, "lat": 31.8506454, "lon": 35.2149771}, {"type": "node", "id": 1357423628, "lat": 31.8554932, "lon": 35.2236224}, {"type": "node", "id": 1357423631, "lat": 31.8495741, "lon": 35.218671}, {"type": "node", "id": 1357423640, "lat": 31.8582537, "lon": 35.2150985}, {"type": "node", "id": 1357423641, "lat": 31.8557128, "lon": 35.2248428}, {"type": "node", "id": 1357423658, "lat": 31.8592868, "lon": 35.2217518}, {"type": "node", "id": 1357707811, "lat": 31.8426621, "lon": 35.2381164}, {"type": "node", "id": 1357707832, "lat": 31.851081, "lon": 35.2260053}, {"type": "node", "id": 1357707863, "lat": 31.8415623, "lon": 35.2299616}, {"type": "node", "id": 1357707867, "lat": 31.845294, "lon": 35.2434446}, {"type": "node", "id": 1357708064, "lat": 31.8467744, "lon": 35.2287801}, {"type": "node", "id": 1357708095, "lat": 31.8432495, "lon": 35.2388829}, {"type": "node", "id": 1357708124, "lat": 31.8529415, "lon": 35.2246186}, {"type": "node", "id": 1357708224, "lat": 31.8479878, "lon": 35.2280422}, {"type": "node", "id": 1381521471, "lat": 31.7914633, "lon": 35.1988688}, {"type": "node", "id": 1381561603, "lat": 31.7911207, "lon": 35.1970293}, {"type": "node", "id": 1381561631, "lat": 31.7918879, "lon": 35.1988405}, {"type": "node", "id": 1381561676, "lat": 31.7909164, "lon": 35.1985393}, {"type": "node", "id": 1381561746, "lat": 31.7911353, "lon": 35.197166}, {"type": "node", "id": 1381561747, "lat": 31.7922017, "lon": 35.1987977}, {"type": "node", "id": 1381561781, "lat": 31.7928099, "lon": 35.1949618}, {"type": "node", "id": 1381561798, "lat": 31.7916693, "lon": 35.1988596}, {"type": "node", "id": 1381561800, "lat": 31.7910646, "lon": 35.1969096}, {"type": "node", "id": 1381561814, "lat": 31.790724, "lon": 35.1979493}, {"type": "node", "id": 1381561827, "lat": 31.7908521, "lon": 35.1975432}, {"type": "node", "id": 1381561846, "lat": 31.7910911, "lon": 35.1972835}, {"type": "node", "id": 1381561849, "lat": 31.790755, "lon": 35.1977084}, {"type": "node", "id": 1398954987, "lat": 31.7336892, "lon": 35.2090063}, {"type": "node", "id": 1398954990, "lat": 31.7315565, "lon": 35.2063674}, {"type": "node", "id": 1398955001, "lat": 31.7350405, "lon": 35.2158277}, {"type": "node", "id": 1398955016, "lat": 31.7382332, "lon": 35.2119867}, {"type": "node", "id": 1398955031, "lat": 31.7309423, "lon": 35.2196142}, {"type": "node", "id": 1398955038, "lat": 31.7346787, "lon": 35.2098082}, {"type": "node", "id": 1398955042, "lat": 31.7223737, "lon": 35.2156157}, {"type": "node", "id": 1398955066, "lat": 31.7231619, "lon": 35.2156794}, {"type": "node", "id": 1398955087, "lat": 31.7326301, "lon": 35.2075987}, {"type": "node", "id": 1398955138, "lat": 31.7214438, "lon": 35.2156128}, {"type": "node", "id": 1447938235, "lat": 31.7889393, "lon": 35.1804446}, {"type": "node", "id": 1447938240, "lat": 31.7860407, "lon": 35.1800457}, {"type": "node", "id": 1447938244, "lat": 31.7954545, "lon": 35.1845228}, {"type": "node", "id": 1447938245, "lat": 31.7858592, "lon": 35.1798751}, {"type": "node", "id": 1447938246, "lat": 31.7854032, "lon": 35.1797034}, {"type": "node", "id": 1447938247, "lat": 31.7907008, "lon": 35.181022}, {"type": "node", "id": 1447938249, "lat": 31.7847553, "lon": 35.1849064}, {"type": "node", "id": 1447938251, "lat": 31.7955168, "lon": 35.1895274}, {"type": "node", "id": 1447938253, "lat": 31.7955593, "lon": 35.1893747}, {"type": "node", "id": 1447938254, "lat": 31.7988382, "lon": 35.1856896}, {"type": "node", "id": 1447938256, "lat": 31.784311, "lon": 35.1830756}, {"type": "node", "id": 1447938258, "lat": 31.7842017, "lon": 35.1839181}, {"type": "node", "id": 1447938261, "lat": 31.7913487, "lon": 35.1811196}, {"type": "node", "id": 1447938262, "lat": 31.7969094, "lon": 35.1824803}, {"type": "node", "id": 1447938263, "lat": 31.794584, "lon": 35.1921621}, {"type": "node", "id": 1447938265, "lat": 31.7962213, "lon": 35.187764}, {"type": "node", "id": 1447938267, "lat": 31.7853755, "lon": 35.1815972}, {"type": "node", "id": 1447938272, "lat": 31.7899079, "lon": 35.1840588}, {"type": "node", "id": 1447938273, "lat": 31.7857306, "lon": 35.1808182}, {"type": "node", "id": 1447938274, "lat": 31.7909589, "lon": 35.1821137}, {"type": "node", "id": 1447938279, "lat": 31.7949757, "lon": 35.1906762}, {"type": "node", "id": 1447938280, "lat": 31.7895704, "lon": 35.1852604}, {"type": "node", "id": 1447938281, "lat": 31.7896343, "lon": 35.1856681}, {"type": "node", "id": 1447938282, "lat": 31.7889863, "lon": 35.1884893}, {"type": "node", "id": 1447938284, "lat": 31.7987473, "lon": 35.1858736}, {"type": "node", "id": 1447938285, "lat": 31.7946417, "lon": 35.191916}, {"type": "node", "id": 1447938286, "lat": 31.7956544, "lon": 35.1879838}, {"type": "node", "id": 1447938288, "lat": 31.7972327, "lon": 35.1837745}, {"type": "node", "id": 1447938290, "lat": 31.7898896, "lon": 35.1861295}, {"type": "node", "id": 1447938294, "lat": 31.7892143, "lon": 35.1876739}, {"type": "node", "id": 1447938296, "lat": 31.7899717, "lon": 35.1863226}, {"type": "node", "id": 1447938298, "lat": 31.7852295, "lon": 35.1852282}, {"type": "node", "id": 1447938299, "lat": 31.7917603, "lon": 35.1880945}, {"type": "node", "id": 1447938301, "lat": 31.7971519, "lon": 35.1874532}, {"type": "node", "id": 1447938302, "lat": 31.7889777, "lon": 35.1881679}, {"type": "node", "id": 1447938303, "lat": 31.7842125, "lon": 35.1834296}, {"type": "node", "id": 1447938304, "lat": 31.796246, "lon": 35.1848619}, {"type": "node", "id": 1447938306, "lat": 31.7898896, "lon": 35.1842734}, {"type": "node", "id": 1447938311, "lat": 31.7860416, "lon": 35.1805617}, {"type": "node", "id": 1447938312, "lat": 31.7981555, "lon": 35.185938}, {"type": "node", "id": 1447938314, "lat": 31.7960672, "lon": 35.1878023}, {"type": "node", "id": 1447938315, "lat": 31.7861137, "lon": 35.1803246}, {"type": "node", "id": 1447938316, "lat": 31.7841103, "lon": 35.1898113}, {"type": "node", "id": 1447938317, "lat": 31.7896069, "lon": 35.1855072}, {"type": "node", "id": 1447938319, "lat": 31.7844938, "lon": 35.1827446}, {"type": "node", "id": 1447938320, "lat": 31.7961448, "lon": 35.1838212}, {"type": "node", "id": 1447938328, "lat": 31.7856124, "lon": 35.1808614}, {"type": "node", "id": 1447938330, "lat": 31.7958876, "lon": 35.1828336}, {"type": "node", "id": 1447938331, "lat": 31.789114, "lon": 35.1888541}, {"type": "node", "id": 1447938332, "lat": 31.7893972, "lon": 35.180669}, {"type": "node", "id": 1447938333, "lat": 31.7848082, "lon": 35.1827384}, {"type": "node", "id": 1447938334, "lat": 31.7914212, "lon": 35.1820734}, {"type": "node", "id": 1447938335, "lat": 31.7895887, "lon": 35.1850995}, {"type": "node", "id": 1447938336, "lat": 31.7955373, "lon": 35.1887786}, {"type": "node", "id": 1447938337, "lat": 31.7891692, "lon": 35.1805295}, {"type": "node", "id": 1447938338, "lat": 31.7955823, "lon": 35.1883954}, {"type": "node", "id": 1447938343, "lat": 31.7895973, "lon": 35.1806465}, {"type": "node", "id": 1447938344, "lat": 31.7955867, "lon": 35.1890755}, {"type": "node", "id": 1447938348, "lat": 31.7899443, "lon": 35.1807549}, {"type": "node", "id": 1447938350, "lat": 31.798906, "lon": 35.1845996}, {"type": "node", "id": 1447938352, "lat": 31.7901048, "lon": 35.1820949}, {"type": "node", "id": 1447938353, "lat": 31.789689, "lon": 35.1848849}, {"type": "node", "id": 1447938354, "lat": 31.7962752, "lon": 35.184393}, {"type": "node", "id": 1447938356, "lat": 31.7897797, "lon": 35.1846483}, {"type": "node", "id": 1447938360, "lat": 31.7959725, "lon": 35.183333}, {"type": "node", "id": 1447938362, "lat": 31.7968123, "lon": 35.1839199}, {"type": "node", "id": 1447938364, "lat": 31.7916583, "lon": 35.181934}, {"type": "node", "id": 1447938366, "lat": 31.798492, "lon": 35.1853361}, {"type": "node", "id": 1447938367, "lat": 31.7850749, "lon": 35.179167}, {"type": "node", "id": 1447938368, "lat": 31.789415, "lon": 35.1875451}, {"type": "node", "id": 1447938370, "lat": 31.7915033, "lon": 35.1812473}, {"type": "node", "id": 1447938372, "lat": 31.7900673, "lon": 35.1867263}, {"type": "node", "id": 1447938373, "lat": 31.7970323, "lon": 35.1848003}, {"type": "node", "id": 1447938375, "lat": 31.7893425, "lon": 35.182965}, {"type": "node", "id": 1447938377, "lat": 31.787975, "lon": 35.1795961}, {"type": "node", "id": 1447938378, "lat": 31.7893151, "lon": 35.1828148}, {"type": "node", "id": 1447938379, "lat": 31.7900533, "lon": 35.1808396}, {"type": "node", "id": 1447938381, "lat": 31.7893006, "lon": 35.1821834}, {"type": "node", "id": 1447938383, "lat": 31.7842551, "lon": 35.1893532}, {"type": "node", "id": 1447938386, "lat": 31.7916513, "lon": 35.1815492}, {"type": "node", "id": 1447938387, "lat": 31.7893333, "lon": 35.183083}, {"type": "node", "id": 1447938388, "lat": 31.7969238, "lon": 35.1877221}, {"type": "node", "id": 1447938390, "lat": 31.7979447, "lon": 35.1871525}, {"type": "node", "id": 1447938392, "lat": 31.7980416, "lon": 35.1844512}, {"type": "node", "id": 1447938394, "lat": 31.7892461, "lon": 35.1890676}, {"type": "node", "id": 1447938396, "lat": 31.7920842, "lon": 35.1873164}, {"type": "node", "id": 1447945738, "lat": 31.7942682, "lon": 35.1866707}, {"type": "node", "id": 1447945761, "lat": 31.793154, "lon": 35.1862404}, {"type": "node", "id": 1447945849, "lat": 31.7946685, "lon": 35.1865441}, {"type": "node", "id": 1447945915, "lat": 31.7950889, "lon": 35.185085}, {"type": "node", "id": 1447945954, "lat": 31.7949845, "lon": 35.1852302}, {"type": "node", "id": 1447945957, "lat": 31.7932434, "lon": 35.1856709}, {"type": "node", "id": 1452697193, "lat": 31.7341165, "lon": 35.1824906}, {"type": "node", "id": 1452697298, "lat": 31.7404558, "lon": 35.1917357}, {"type": "node", "id": 1452697334, "lat": 31.7387575, "lon": 35.1941426}, {"type": "node", "id": 1452697526, "lat": 31.7361675, "lon": 35.191602}, {"type": "node", "id": 1452697588, "lat": 31.7375433, "lon": 35.1896678}, {"type": "node", "id": 1452697618, "lat": 31.7393333, "lon": 35.1878782}, {"type": "node", "id": 1452697688, "lat": 31.739336, "lon": 35.1892712}, {"type": "node", "id": 1452697784, "lat": 31.736929, "lon": 35.189526}, {"type": "node", "id": 1452697809, "lat": 31.7375629, "lon": 35.1893993}, {"type": "node", "id": 1452697842, "lat": 31.7331148, "lon": 35.1844846}, {"type": "node", "id": 1452697871, "lat": 31.7367506, "lon": 35.1883366}, {"type": "node", "id": 1452697914, "lat": 31.736708, "lon": 35.1918585}, {"type": "node", "id": 1452697950, "lat": 31.7372346, "lon": 35.1917356}, {"type": "node", "id": 1454917179, "lat": 31.7499219, "lon": 35.1654595}, {"type": "node", "id": 1454917398, "lat": 31.7501791, "lon": 35.1654047}, {"type": "node", "id": 1455264317, "lat": 31.8415561, "lon": 35.2300875}, {"type": "node", "id": 1455293582, "lat": 31.8442741, "lon": 35.2294181}, {"type": "node", "id": 1455293889, "lat": 31.8412459, "lon": 35.234742}, {"type": "node", "id": 1455293981, "lat": 31.8403415, "lon": 35.2332964}, {"type": "node", "id": 1455294044, "lat": 31.8454575, "lon": 35.2289434}, {"type": "node", "id": 1455294046, "lat": 31.8434096, "lon": 35.2300883}, {"type": "node", "id": 1455294062, "lat": 31.8403507, "lon": 35.2328266}, {"type": "node", "id": 1455335574, "lat": 31.8354732, "lon": 35.2362476}, {"type": "node", "id": 1455335583, "lat": 31.8349956, "lon": 35.2364503}, {"type": "node", "id": 1455335604, "lat": 31.8345079, "lon": 35.2371896}, {"type": "node", "id": 1455335647, "lat": 31.8350307, "lon": 35.2362524}, {"type": "node", "id": 1455348239, "lat": 31.833899, "lon": 35.2408261}, {"type": "node", "id": 1455348263, "lat": 31.8333, "lon": 35.2375248}, {"type": "node", "id": 1455348351, "lat": 31.8339057, "lon": 35.2417351}, {"type": "node", "id": 1456135299, "lat": 31.8236418, "lon": 35.2528863}, {"type": "node", "id": 1456135312, "lat": 31.8318646, "lon": 35.2469989}, {"type": "node", "id": 1456135389, "lat": 31.8240813, "lon": 35.2412833}, {"type": "node", "id": 1456135401, "lat": 31.8254477, "lon": 35.2454572}, {"type": "node", "id": 1456135403, "lat": 31.8335884, "lon": 35.2441154}, {"type": "node", "id": 1456135414, "lat": 31.8248055, "lon": 35.2535413}, {"type": "node", "id": 1456135502, "lat": 31.8227762, "lon": 35.2517329}, {"type": "node", "id": 1456135532, "lat": 31.8226523, "lon": 35.2510441}, {"type": "node", "id": 1456135574, "lat": 31.8333745, "lon": 35.248769}, {"type": "node", "id": 1456135599, "lat": 31.8314243, "lon": 35.2474335}, {"type": "node", "id": 1456135607, "lat": 31.8271844, "lon": 35.2475514}, {"type": "node", "id": 1456135613, "lat": 31.8235165, "lon": 35.2413862}, {"type": "node", "id": 1456135621, "lat": 31.825145, "lon": 35.253633}, {"type": "node", "id": 1456135634, "lat": 31.8234331, "lon": 35.2523809}, {"type": "node", "id": 1456135652, "lat": 31.8222612, "lon": 35.2468459}, {"type": "node", "id": 1456135765, "lat": 31.8228095, "lon": 35.2434679}, {"type": "node", "id": 1456135793, "lat": 31.8251757, "lon": 35.2439803}, {"type": "node", "id": 1456135823, "lat": 31.8315296, "lon": 35.2470263}, {"type": "node", "id": 1456135893, "lat": 31.8332418, "lon": 35.2487379}, {"type": "node", "id": 1456135962, "lat": 31.8257662, "lon": 35.2446181}, {"type": "node", "id": 1456136152, "lat": 31.8251238, "lon": 35.2460445}, {"type": "node", "id": 1456136177, "lat": 31.8213423, "lon": 35.2481023}, {"type": "node", "id": 1456136185, "lat": 31.8320027, "lon": 35.2470703}, {"type": "node", "id": 1456136191, "lat": 31.8332542, "lon": 35.2437417}, {"type": "node", "id": 1456136232, "lat": 31.8232207, "lon": 35.2521594}, {"type": "node", "id": 1456136302, "lat": 31.8230054, "lon": 35.2432974}, {"type": "node", "id": 1456136363, "lat": 31.8272202, "lon": 35.2478848}, {"type": "node", "id": 1456136434, "lat": 31.8317142, "lon": 35.2469571}, {"type": "node", "id": 1456136588, "lat": 31.8330172, "lon": 35.2445581}, {"type": "node", "id": 1456136610, "lat": 31.8251561, "lon": 35.2477121}, {"type": "node", "id": 1456136680, "lat": 31.8271997, "lon": 35.2476322}, {"type": "node", "id": 1456136682, "lat": 31.821435, "lon": 35.247396}, {"type": "node", "id": 1456136701, "lat": 31.8238632, "lon": 35.2411911}, {"type": "node", "id": 1456136706, "lat": 31.8242716, "lon": 35.2416038}, {"type": "node", "id": 1456136712, "lat": 31.8230196, "lon": 35.2448209}, {"type": "node", "id": 1456136715, "lat": 31.823461, "lon": 35.2415432}, {"type": "node", "id": 1456136762, "lat": 31.8232097, "lon": 35.2431274}, {"type": "node", "id": 1456136772, "lat": 31.8291915, "lon": 35.2483615}, {"type": "node", "id": 1456136824, "lat": 31.8256188, "lon": 35.2450325}, {"type": "node", "id": 1456136854, "lat": 31.8233215, "lon": 35.242784}, {"type": "node", "id": 1456136855, "lat": 31.8277599, "lon": 35.2478782}, {"type": "node", "id": 1456136870, "lat": 31.8228159, "lon": 35.243806}, {"type": "node", "id": 1456136898, "lat": 31.8236317, "lon": 35.2412927}, {"type": "node", "id": 1456136906, "lat": 31.8320824, "lon": 35.247235}, {"type": "node", "id": 1456136923, "lat": 31.8332034, "lon": 35.243925}, {"type": "node", "id": 1456136925, "lat": 31.8248521, "lon": 35.2435943}, {"type": "node", "id": 1456136930, "lat": 31.8219073, "lon": 35.2470618}, {"type": "node", "id": 1456136965, "lat": 31.8265548, "lon": 35.2479801}, {"type": "node", "id": 1456136968, "lat": 31.8232841, "lon": 35.2429627}, {"type": "node", "id": 1456136969, "lat": 31.8226504, "lon": 35.2464559}, {"type": "node", "id": 1456136972, "lat": 31.8325407, "lon": 35.2485922}, {"type": "node", "id": 1456136975, "lat": 31.8295406, "lon": 35.2482311}, {"type": "node", "id": 1456136979, "lat": 31.8226559, "lon": 35.2514255}, {"type": "node", "id": 1456137002, "lat": 31.8226149, "lon": 35.2503687}, {"type": "node", "id": 1456137004, "lat": 31.8216777, "lon": 35.2472208}, {"type": "node", "id": 1456137010, "lat": 31.8248005, "lon": 35.243305}, {"type": "node", "id": 1456137012, "lat": 31.8212529, "lon": 35.247532}, {"type": "node", "id": 1456137026, "lat": 31.8248678, "lon": 35.2459957}, {"type": "node", "id": 1456137052, "lat": 31.8305018, "lon": 35.2478707}, {"type": "node", "id": 1456137058, "lat": 31.8253606, "lon": 35.2479274}, {"type": "node", "id": 1456137147, "lat": 31.8283055, "lon": 35.2482671}, {"type": "node", "id": 1456137153, "lat": 31.8298679, "lon": 35.248101}, {"type": "node", "id": 1456137173, "lat": 31.8260574, "lon": 35.2481267}, {"type": "node", "id": 1456137190, "lat": 31.8243037, "lon": 35.241517}, {"type": "node", "id": 1456137228, "lat": 31.8256987, "lon": 35.244292}, {"type": "node", "id": 1456137240, "lat": 31.8315332, "lon": 35.2472918}, {"type": "node", "id": 1456137264, "lat": 31.8230415, "lon": 35.2456185}, {"type": "node", "id": 1456137276, "lat": 31.8353169, "lon": 35.2445096}, {"type": "node", "id": 1456137310, "lat": 31.8257391, "lon": 35.2481084}, {"type": "node", "id": 1456137323, "lat": 31.8226331, "lon": 35.2499165}, {"type": "node", "id": 1456137326, "lat": 31.8225906, "lon": 35.2467223}, {"type": "node", "id": 1456137358, "lat": 31.8258803, "lon": 35.2444845}, {"type": "node", "id": 1456137361, "lat": 31.8228401, "lon": 35.2443418}, {"type": "node", "id": 1456137434, "lat": 31.834126, "lon": 35.2442363}, {"type": "node", "id": 1456137442, "lat": 31.8321391, "lon": 35.2476108}, {"type": "node", "id": 1456137443, "lat": 31.8332756, "lon": 35.2429359}, {"type": "node", "id": 1456137472, "lat": 31.8337161, "lon": 35.2421758}, {"type": "node", "id": 1456137501, "lat": 31.8226117, "lon": 35.2496343}, {"type": "node", "id": 1456137510, "lat": 31.8337769, "lon": 35.2418743}, {"type": "node", "id": 1456137558, "lat": 31.8247769, "lon": 35.2471772}, {"type": "node", "id": 1470632070, "lat": 31.8252284, "lon": 35.2565163}, {"type": "node", "id": 1470632100, "lat": 31.8181996, "lon": 35.2567788}, {"type": "node", "id": 1470632108, "lat": 31.8229203, "lon": 35.2460327}, {"type": "node", "id": 1470632119, "lat": 31.819029, "lon": 35.2595414}, {"type": "node", "id": 1470632167, "lat": 31.8250913, "lon": 35.2553861}, {"type": "node", "id": 1470632174, "lat": 31.8236503, "lon": 35.2597338}, {"type": "node", "id": 1470632203, "lat": 31.8254726, "lon": 35.2546754}, {"type": "node", "id": 1470632211, "lat": 31.8237302, "lon": 35.2535729}, {"type": "node", "id": 1470632212, "lat": 31.8186051, "lon": 35.2588358}, {"type": "node", "id": 1470632221, "lat": 31.8170232, "lon": 35.2576639}, {"type": "node", "id": 1470632224, "lat": 31.8237041, "lon": 35.2529521}, {"type": "node", "id": 1470632225, "lat": 31.8228825, "lon": 35.2605818}, {"type": "node", "id": 1470632227, "lat": 31.8184908, "lon": 35.2569869}, {"type": "node", "id": 1470632246, "lat": 31.8222813, "lon": 35.2610771}, {"type": "node", "id": 1470632247, "lat": 31.8244052, "lon": 35.2583938}, {"type": "node", "id": 1470632258, "lat": 31.817515, "lon": 35.2576327}, {"type": "node", "id": 1470632282, "lat": 31.8250851, "lon": 35.2558839}, {"type": "node", "id": 1470632287, "lat": 31.8254129, "lon": 35.2538372}, {"type": "node", "id": 1470632288, "lat": 31.8223797, "lon": 35.2491977}, {"type": "node", "id": 1470632302, "lat": 31.8201362, "lon": 35.2604177}, {"type": "node", "id": 1470632308, "lat": 31.8241614, "lon": 35.2532017}, {"type": "node", "id": 1470632310, "lat": 31.824124, "lon": 35.2587766}, {"type": "node", "id": 1470632319, "lat": 31.8185588, "lon": 35.2573164}, {"type": "node", "id": 1470632329, "lat": 31.8226899, "lon": 35.2515124}, {"type": "node", "id": 1470632332, "lat": 31.8178882, "lon": 35.2572484}, {"type": "node", "id": 1470632363, "lat": 31.8252933, "lon": 35.2550851}, {"type": "node", "id": 1470632364, "lat": 31.8212238, "lon": 35.2478893}, {"type": "node", "id": 1470632383, "lat": 31.8239226, "lon": 35.2533524}, {"type": "node", "id": 1470632393, "lat": 31.8243264, "lon": 35.2531674}, {"type": "node", "id": 1470632398, "lat": 31.8245245, "lon": 35.2534601}, {"type": "node", "id": 1470632410, "lat": 31.8246157, "lon": 35.2580808}, {"type": "node", "id": 1470632414, "lat": 31.8214553, "lon": 35.2608387}, {"type": "node", "id": 1470632418, "lat": 31.8186289, "lon": 35.2577753}, {"type": "node", "id": 1470632455, "lat": 31.8254265, "lon": 35.2540282}, {"type": "node", "id": 1470632471, "lat": 31.8217894, "lon": 35.261221}, {"type": "node", "id": 1470632513, "lat": 31.8234069, "lon": 35.2604261}, {"type": "node", "id": 1470632515, "lat": 31.8205439, "lon": 35.2606146}, {"type": "node", "id": 1470632523, "lat": 31.8228205, "lon": 35.2447323}, {"type": "node", "id": 1470632534, "lat": 31.8238637, "lon": 35.2592345}, {"type": "node", "id": 1473146568, "lat": 31.8187298, "lon": 35.2410203}, {"type": "node", "id": 1473146570, "lat": 31.8171994, "lon": 35.2468963}, {"type": "node", "id": 1473146571, "lat": 31.8165874, "lon": 35.2432332}, {"type": "node", "id": 1473146573, "lat": 31.814945, "lon": 35.2552706}, {"type": "node", "id": 1473146574, "lat": 31.8177124, "lon": 35.2398605}, {"type": "node", "id": 1473146581, "lat": 31.816106, "lon": 35.243489}, {"type": "node", "id": 1473146583, "lat": 31.8155654, "lon": 35.2425438}, {"type": "node", "id": 1473146585, "lat": 31.8183286, "lon": 35.2443452}, {"type": "node", "id": 1473146587, "lat": 31.8141696, "lon": 35.2549388}, {"type": "node", "id": 1473146590, "lat": 31.818057, "lon": 35.2396696}, {"type": "node", "id": 1473146593, "lat": 31.8182922, "lon": 35.2436575}, {"type": "node", "id": 1473146595, "lat": 31.8177434, "lon": 35.2418743}, {"type": "node", "id": 1473146601, "lat": 31.8131321, "lon": 35.2530044}, {"type": "node", "id": 1473146603, "lat": 31.8153292, "lon": 35.2424612}, {"type": "node", "id": 1473146604, "lat": 31.8164903, "lon": 35.2575211}, {"type": "node", "id": 1473146607, "lat": 31.8148411, "lon": 35.2565588}, {"type": "node", "id": 1473146609, "lat": 31.8165773, "lon": 35.2444342}, {"type": "node", "id": 1473146611, "lat": 31.8182758, "lon": 35.2401009}, {"type": "node", "id": 1473146613, "lat": 31.8151641, "lon": 35.2482617}, {"type": "node", "id": 1473146615, "lat": 31.8191818, "lon": 35.2412369}, {"type": "node", "id": 1473146624, "lat": 31.818439, "lon": 35.2428431}, {"type": "node", "id": 1473146626, "lat": 31.8175027, "lon": 35.2461036}, {"type": "node", "id": 1473146627, "lat": 31.8134812, "lon": 35.2481936}, {"type": "node", "id": 1473146629, "lat": 31.8172669, "lon": 35.2431428}, {"type": "node", "id": 1473146631, "lat": 31.8160121, "lon": 35.2429901}, {"type": "node", "id": 1473146632, "lat": 31.8168554, "lon": 35.2430931}, {"type": "node", "id": 1473146634, "lat": 31.8131311, "lon": 35.2518264}, {"type": "node", "id": 1473146635, "lat": 31.8150503, "lon": 35.242679}, {"type": "node", "id": 1473146646, "lat": 31.8176682, "lon": 35.2424728}, {"type": "node", "id": 1473146648, "lat": 31.8144467, "lon": 35.2476175}, {"type": "node", "id": 1473146653, "lat": 31.8136454, "lon": 35.2508747}, {"type": "node", "id": 1473146655, "lat": 31.8164889, "lon": 35.2455082}, {"type": "node", "id": 1473146657, "lat": 31.8146446, "lon": 35.2550257}, {"type": "node", "id": 1473146662, "lat": 31.8117472, "lon": 35.2514176}, {"type": "node", "id": 1473146667, "lat": 31.8157067, "lon": 35.2465424}, {"type": "node", "id": 1473146669, "lat": 31.8117991, "lon": 35.2521289}, {"type": "node", "id": 1473146672, "lat": 31.8178263, "lon": 35.2447958}, {"type": "node", "id": 1473146674, "lat": 31.8134958, "lon": 35.2546534}, {"type": "node", "id": 1473146676, "lat": 31.8132615, "lon": 35.2541428}, {"type": "node", "id": 1473146679, "lat": 31.8142425, "lon": 35.2496195}, {"type": "node", "id": 1473146681, "lat": 31.8165235, "lon": 35.2475134}, {"type": "node", "id": 1473146686, "lat": 31.8178546, "lon": 35.2396449}, {"type": "node", "id": 1473146687, "lat": 31.8176896, "lon": 35.2454159}, {"type": "node", "id": 1510050993, "lat": 31.8156456, "lon": 35.2120723}, {"type": "node", "id": 1510051004, "lat": 31.8162968, "lon": 35.2179102}, {"type": "node", "id": 1510051010, "lat": 31.8162614, "lon": 35.2172078}, {"type": "node", "id": 1510051020, "lat": 31.8124038, "lon": 35.2116959}, {"type": "node", "id": 1510051023, "lat": 31.816639, "lon": 35.2168666}, {"type": "node", "id": 1510051036, "lat": 31.8162442, "lon": 35.2168695}, {"type": "node", "id": 1510051044, "lat": 31.8190169, "lon": 35.2233454}, {"type": "node", "id": 1510051059, "lat": 31.8135455, "lon": 35.212065}, {"type": "node", "id": 1510051064, "lat": 31.8167013, "lon": 35.2235599}, {"type": "node", "id": 1510051070, "lat": 31.8187197, "lon": 35.2240078}, {"type": "node", "id": 1510051074, "lat": 31.8110687, "lon": 35.2107884}, {"type": "node", "id": 1510051082, "lat": 31.818043, "lon": 35.224577}, {"type": "node", "id": 1510051083, "lat": 31.8182081, "lon": 35.2158774}, {"type": "node", "id": 1510051094, "lat": 31.8168568, "lon": 35.21294}, {"type": "node", "id": 1510051105, "lat": 31.8179585, "lon": 35.2241833}, {"type": "node", "id": 1510051119, "lat": 31.8154901, "lon": 35.218153}, {"type": "node", "id": 1510051125, "lat": 31.8178646, "lon": 35.2246468}, {"type": "node", "id": 1510076638, "lat": 31.8141385, "lon": 35.2196382}, {"type": "node", "id": 1510076665, "lat": 31.8160805, "lon": 35.2237906}, {"type": "node", "id": 1510076691, "lat": 31.8095406, "lon": 35.226168}, {"type": "node", "id": 1510076733, "lat": 31.8128487, "lon": 35.2236912}, {"type": "node", "id": 1510076763, "lat": 31.8122323, "lon": 35.2239534},