{"version": 0.6, "generator": "Overpass API 0.7.62.4 2390de5a", "osm3s": {"timestamp_osm_base": "2025-01-08T06:47:00Z", "copyright": "The data included in this document is from www.openstreetmap.org. The data is made available under ODbL."}, "elements": [{"type": "node", "id": 2104175124, "lat": 12.9497506, "lon": 22.8729194, "tags": {"GNS:dsg_code": "PPL", "GNS:dsg_name": "populated place", "GNS:id": "-11662", "GNS:modify_date": "2009-01-27", "alt_name": "Mournei", "description": "\u0648\u062d\u062f\u0629 \u0645\u0648\u0631\u0646\u064a \u0627\u0644\u0627\u062f\u0627\u0631\u064a\u0629", "designation": "Unity administrative", "name": "Murnei", "name:ar": "\u0645\u0648\u0631\u0646\u064a", "name:en": "Murnei", "name:tr": "Murnei", "place": "town", "postal_code": "00765"}}, {"type": "node", "id": 2580440915, "lat": 12.9779066, "lon": 22.9268864, "tags": {"name": "Rungatas", "name:ar": "\u0631\u0648\u0646\u0642\u0627\u062a\u0627\u0633", "place": "town"}}, {"type": "node", "id": 7730426828, "lat": 12.8633034, "lon": 22.7150426, "tags": {"GNS:dsg_code": "PPL", "GNS:dsg_name": "populated place", "GNS:id": "-15571", "GNS:modify_date": "2012-09-12", "name": "Tongfuka", "name:ar": "\u062a\u0648\u0646\u063a\u0641\u0643", "name:en": "Tongfuka", "place": "town", "postal_code": "00993", "source": "GNS"}}, {"type": "node", "id": 9450382596, "lat": 12.8028758, "lon": 22.7183422, "tags": {"name": "Tulus", "name:ar": "\u062a\u0644\u0633", "place": "town"}}, {"type": "node", "id": 11123067355, "lat": 13.0699382, "lon": 22.9529988, "tags": {"name": "Romalia", "place": "town", "postal_code": "03052"}}, {"type": "node", "id": 11301717691, "lat": 13.0051154, "lon": 22.8166911, "tags": {"name": "Wireisa", "name:ar": "\u0648\u0631\u064a\u0633\u0627", "place": "town"}}]}